local_name,address,gmap_id,latitude,longitude,category,avg_rating,num_of_reviews,apto_sillas_de_ruedas,atmosfera_agradable,apto_grupos_grandes,solo_efectivo,state,City
Quiznos,"Quiznos, 2490 SW 17th Ave, Miami, FL 33145",0x88d9b64fee5193ab:0x86da272b8d1aa234,25.746303299999997,-80.2219976,"Sandwich shop, Caterer, Deli, Fast food restaurant, Restaurant",3.0,8,0,0,0,0,FL,Miami
Chart House - CLOSED,"Chart House - CLOSED, 51 Charthouse Dr, Miami, FL 33133",0x88d9b7ccc71589f3:0x8c2e01f74a939004,25.729039999999998,-80.232987,"Restaurant, American restaurant, Banquet hall, Fine dining restaurant, Seafood restaurant, Steak house",3.1,26,1,0,1,0,FL,Miami
Tapelia,"Tapelia, 30 SW 12th St, Miami, FL 33130",0x88d9b686ac4f6f4b:0x646dba9ec289041f,25.762428,-80.1933188,Restaurant,3.2,8,0,0,0,0,FL,Miami
Subway,"Subway, 1395 Brickell Ave Suite 160, Miami, FL 33131",0x88d9b6811a7761f5:0xf3d18ce005b495a0,25.760705599999998,-80.1914888,"Sandwich shop, Fast food restaurant, Takeout Restaurant, Restaurant",3.3,27,0,0,0,0,FL,Miami
Biscayne Backyard Barbecue,"Biscayne Backyard Barbecue, 11064 Biscayne Blvd, Miami, FL 33161",0x88d9b395c6179c89:0x914b0aafb453b3b5,25.8779042,-80.1684336,Restaurant,3.9,23,0,0,0,0,FL,Miami
Havana Vice,"Havana Vice, 13960 SW 8th St, Miami, FL 33184",0x88d9bfa555b15265:0x7c664601387e00a4,25.760469099999998,-80.4212864,"Restaurant, Live music venue",3.9,48,0,0,0,0,FL,Miami
El Burrito,"El Burrito, 3105 Grand Ave, Miami, FL 33133",0x88d9b7c578a08e73:0x3724ae2df08e799f,25.728565399999997,-80.2424307,Mexican restaurant,3.9,8,1,0,0,1,FL,Miami
Papa Nose Italian Eatery,"Papa Nose Italian Eatery, 10851 SW 40th St, Miami, FL 33165",0x88d9bf5210baccbb:0x1a21766a4ff5bce6,25.7326205,-80.3707,Italian restaurant,4.0,7,0,0,0,0,FL,Miami
Las Vegas Cuban Cuisine,"Las Vegas Cuban Cuisine, 11995 SW 26th St, Miami, FL 33175",0x88d9bf6ac480a271:0xbf9b356e22a9a9c7,25.745692,-80.39014,Cuban restaurant,4.0,48,0,0,0,0,FL,Miami
Fritanga El Campesino,"Fritanga El Campesino, 2001 NW 36th St, Miami, FL 33142",0x88d9b12bab9b09ab:0xc3d2e262fbbd88a9,25.8096274,-80.2291755,"Honduran restaurant, Cafe",4.0,35,0,0,0,0,FL,Miami
Jimmy John's,"Jimmy John's, 3423 Main Hwy, Miami, FL 33133",0x88d9b7cf901aa20d:0x7ac94c53e005abde,25.727453,-80.24264699999999,"Sandwich shop, Caterer, Delivery Restaurant, Restaurant",4.1,16,1,0,0,0,FL,Miami
Chimi El Tigre - Wynwood,"Chimi El Tigre - Wynwood, 120 NE 27th St, Miami, FL 33137",0x88d9a9328e54ddaf:0x7003811c3cc8be0a,25.802139999999998,-80.19265,Dominican restaurant,4.1,18,0,0,0,0,FL,Miami
Palma Juice Co.,"Palma Juice Co., 8300 NE 2nd Ave, Miami, FL 33138",0x88d9b1005bc3752d:0xb173e4bc55c800f1,25.851944099999997,-80.1932454,"Juice shop, Health food restaurant",4.4,8,1,0,0,0,FL,Miami
Masayita Minimarket Corporation,"Masayita Minimarket Corporation, 10930 W Flagler St # 304, Miami, FL 33174",0x88d9bf29ce6fd5ad:0xbe51eec47e0a780f,25.7675993,-80.37453339999999,"Grocery store, Restaurant",4.4,18,0,0,0,0,FL,Miami
Brangus Brazilian Steakhouse,"Brangus Brazilian Steakhouse, 161 NE 27th St, Miami, FL 33137",0x88d9b7e8a9248bb1:0x92213a95605034a6,25.802936,-80.19153299999999,Restaurant,4.5,13,1,0,1,0,FL,Miami
Choices Cafe,"Choices Cafe, 711 NW 27th Ave, Miami, FL 33125",0x88d9b719170a9f61:0x30d454a980f76ad3,25.7798366,-80.23910339999999,Restaurant,4.6,45,0,0,0,0,FL,Miami
CLOSED TO PUBLIC - The Salty Donut Kitchen,"CLOSED TO PUBLIC - The Salty Donut Kitchen, 301 NE 61st St, Miami, FL 33137",0x88d9b161815f0cd1:0x788d294b23184585,25.832614099999997,-80.19002189999999,Restaurant,4.6,8,0,0,0,0,FL,Miami
Salt & Sugar Cafe,"Salt & Sugar Cafe, 20 W Flagler St, Miami, FL 33130",0x88d9b69be594d6cd:0x4333ea743ab5734b,25.7740419,-80.194043,Restaurant,4.6,34,0,0,0,0,FL,Miami
Neo's Blender Smoothie Shop,"Neo's Blender Smoothie Shop, 2895 McFarlane Rd Bay C, Miami, FL 33133",0x88d9b70128bfc89f:0x681c88ec0a09253e,25.7275952,-80.2409972,"Health food restaurant, Juice shop",4.6,14,1,0,0,0,FL,Miami
Prana,"Prana, 7293 NW 36th St, Miami, FL 33166",0x88d9b98728e6a527:0xfb5bd70408dd12c4,25.8103485,-80.31559349999999,"Vegetarian restaurant, Health food restaurant, Restaurant",4.7,28,0,0,0,0,FL,Miami
Angie's Epicurean,"Angie's Epicurean, 2222 NW 5 Ave, Miami, FL 33127",0x88d9b7962f330e37:0x545cbd258b6c31f4,25.798593099999998,-80.20343729999999,"Ice cream shop, Dessert shop, Vegan restaurant",4.8,18,0,0,0,0,FL,Miami
Iberico Spanish Restaurant,"Iberico Spanish Restaurant, 15528 SW 72nd St, Miami, FL 33193",0x88d9c1250386fb01:0x4e0f7ca9f064f153,25.6983905,-80.4447467,Restaurant,4.8,8,0,0,0,0,FL,Miami
Military Burgers,"Military Burgers, 10834 SW 104th St, Miami, FL 33176",0x88d9c12bd92db449:0xc16bddf5ebdba1aa,25.671944399999997,-80.3713106,"Fast food restaurant, American restaurant, Hamburger restaurant",4.8,4,0,0,0,0,FL,Miami
Shikany,"Shikany, 251 NW 25th St, Miami, FL 33127",0x88d9b6b25d0f250f:0xf894aad377f361a,25.8008854,-80.2001816,Restaurant,4.8,4,1,0,0,0,FL,Miami
Caro Mio Ristorante,"Caro Mio Ristorante, 3398 SW 22nd St, Miami, FL 33145",0x88d9b7a3506a2169:0x9bceb25b50dd779,25.749798199999997,-80.2494488,Restaurant,4.9,28,0,0,0,0,FL,Miami
iPos Point of Sale,"iPos Point of Sale, 4995 NW 72nd Ave #307, Miami, FL 33166",0x88d9ab9f3edd30e7:0x297c33e88f6952e8,25.818437799999998,-80.31308469999999,"Software company, Accounting software company, Business to business service, Computer networking center, Delivery service, Financial institution, Restaurant supply store, Website designer",5.0,117,1,0,0,0,FL,Miami
Hibachi Grill Masters FOODTRUCK,"Hibachi Grill Masters FOODTRUCK, 13850 SW 8th St, Miami, FL 33184",0x88d9bfa57727df51:0x36d59eaf6bac4d12,25.759833099999998,-80.4202289,Teppanyaki restaurant,5.0,3,0,0,0,0,FL,Miami
Caribbean Airport Cuisine Inc,"Caribbean Airport Cuisine Inc, 2 NE 40th St STE 302, Miami, FL 33137",0x88d9b150fbc75ba7:0xe5b6268540ad1e79,25.8131579,-80.19511589999999,"Association or organization, Restaurant",5.0,1,1,0,0,0,FL,Miami
Kasalta 305 Pizzeria,"Kasalta 305 Pizzeria, 12835 SW 42nd St, Miami, FL 33175",0x88d9bf7b874f1ebf:0x59d0d5e9f6699440,25.7301236,-80.4024295,Pizza restaurant,5.0,5,0,0,0,0,FL,Miami
Krispy rice,"Krispy rice, 1324 SW 1st Ave, Miami, FL 33130",0x88d9b79c36201e27:0xef2ed579ecb2d0a6,25.760706499999998,-80.1952979,Restaurant,2.1,38,1,1,0,0,FL,Miami
Drunken Wok,"Drunken Wok, 1112 NW 62nd St, Miami, FL 33150",0x88d9b1142cdb7015:0xb41a0c87a679f7ce,25.831798,-80.214912,Takeout Restaurant,2.6,47,1,1,0,0,FL,Miami
Man vs Fries,"Man vs Fries, 1324 SW 1st Ave, Miami, FL 33130",0x88d9b7f22430cba1:0x78f875f8e1da53af,25.760889799999998,-80.19477359999999,Restaurant,2.6,24,1,1,1,0,FL,Miami
Natural Chicken Grill,"Natural Chicken Grill, 13800 SW 8th St, Miami, FL 33184",0x88d9bfa57727df51:0xb87f30c516923a1f,25.759546999999998,-80.4190467,Fast food restaurant,2.7,3,1,1,0,0,FL,Miami
Pizza Hut Express,"Pizza Hut Express, 7795 SW 40th St, Miami, FL 33155",0x88d9b862036447a7:0x7e8642e271398198,25.7360351,-80.3207982,"Pizza restaurant, Pizza Takeout",2.9,8,1,1,0,0,FL,Miami
Dunkanoo,"Dunkanoo, 346 NW 24th St, Miami, FL 33127",0x88d9b7b423ea01ed:0x7bdbe528d92584c1,25.7998805,-80.2011916,Restaurant,3.0,8,1,1,1,0,FL,Miami
Table 55,"Table 55, 9100 N Kendall Dr, Miami, FL 33176",0x88d9c717c2c00001:0xaf0d7e77a60ada76,25.6861905,-80.34216459999999,Restaurant,3.1,18,1,1,1,0,FL,Miami
Starbucks,"Starbucks, 7575 SW 88th St, Miami, FL 33173",0x88d9c76c8f00044b:0x20f2c6349aef7800,25.690544,-80.314964,"Coffee shop, Breakfast restaurant, Cafe, Coffee store, Espresso bar, Internet cafe",3.3,35,1,1,1,0,FL,Miami
Store Grocery,"Store Grocery, 727 NW 111th St, Miami, FL 33168",0x88d9b1c015ea1f1b:0x887379498535ceb0,25.876777099999998,-80.2104813,Restaurant,3.8,18,1,1,0,0,FL,Miami
Half Moon Empanadas,"Half Moon Empanadas, 5250 University Dr, Miami, FL 33146",0x88d9b7ff60caa517:0xc0064686b8ed6cb6,25.720113299999998,-80.2763875,Fast food restaurant,3.8,5,0,1,0,0,FL,Miami
Pizza Hut Express,"Pizza Hut Express, 8363 W Flagler Street Ktpx, Miami, FL 33144",0x88d9b903162ca95b:0xda59f7a9fc581fad,25.770179,-80.331037,"Pizza restaurant, Pizza Takeout",3.8,18,1,1,0,0,FL,Miami
La Familia Bar Restaurant,"La Familia Bar Restaurant, 2818 NW 22nd Ave, Miami, FL 33142",0x88d9b6d58b1f9eed:0x361056e5d8c82e1e,25.802250299999997,-80.2319551,"Bar, Restaurant",3.8,65,1,1,1,0,FL,Miami
Soup!,"Soup!, Perimeter Rd, Miami, FL 33127",0x88d9b6b68f32ef15:0x248e55b8c53553cf,25.7981363,-80.2066778,Restaurant,4.0,1,1,1,0,0,FL,Miami
SUSTAIN restaurant and bar,"SUSTAIN restaurant and bar, 3252 NE 1st Ave, Miami, FL 33137",0x88d9b153881b439f:0xf05271bc1c789daa,25.8075045,-80.19333309999999,"Restaurant, American restaurant",4.0,1,0,1,0,0,FL,Miami
Barracudas Restaurant & Cafetería,"Barracudas Restaurant & Cafetería, 10949 SW 186th St, Miami, FL 33157",0x88d9c34c50a186d3:0x2c1911411aa42ead,25.5964355,-80.3694458,Cuban restaurant,4.0,4,1,1,1,0,FL,Miami
Canton Palace Chinese Restaurant,"Canton Palace Chinese Restaurant, 7980 SW 8th St, Miami, FL 33144",0x88d9b9009976b2d1:0xdb8853eabc1567cd,25.761476,-80.325898,Chinese restaurant,4.1,25,1,1,1,0,FL,Miami
Cosme Cafe,"Cosme Cafe, 8390 Bird Rd, Miami, FL 33155",0x88d9b88fc73d93b5:0xd6dfbcd1737e9033,25.7328528,-80.3311611,Cuban restaurant,4.1,28,1,1,1,0,FL,Miami
Pasha's,"Pasha's, 1120 NW 14th St, Miami, FL 33136",0x88d9b6c12dc5bc55:0x8ff2d900fb614b69,25.7871651,-80.21294379999999,"Mediterranean restaurant, Restaurant",4.2,5,1,1,1,0,FL,Miami
El Palenque Pizzería Cubana,"El Palenque Pizzería Cubana, 8698 SW 40th St, Miami, FL 33155",0x88d9b9c2a7b16fbb:0x960bb156a4532c53,25.732790299999998,-80.3356063,"Pizza restaurant, Cuban restaurant, Family restaurant, Fast food restaurant, Pizza Takeout",4.2,18,1,1,0,0,FL,Miami
Pokekai Brickell,"Pokekai Brickell, 609 Brickell Ave, Miami, FL 33131",0x88d9abc90f605ab7:0xc445345531456d88,25.7676664,-80.1895552,Sushi restaurant,4.2,8,1,1,1,0,FL,Miami
Cinco hermanos taqueria,"Cinco hermanos taqueria, 18398 S Dixie Hwy, Miami, FL 33157",0x88d9c587d322385b:0x25713d15aff7bd75,25.5989008,-80.35443959999999,Mexican restaurant,4.3,8,1,1,0,0,FL,Miami
Sra Martinez,"Sra Martinez, 4000 NE 2nd Ave, Miami, FL 33137",0x88d9b15715c73e35:0xab6ded887b2971c6,25.8136671,-80.19265,Restaurant,4.3,13,0,1,0,0,FL,Miami
Simply Indian,"Simply Indian, 1806 SW 22nd Ave, Miami, FL 33145",0x88d9b7ef4a91490f:0xfe3bc08c8946a2ed,25.754803499999998,-80.2304261,"Indian restaurant, Afghani restaurant, Mediterranean restaurant, Pakistani restaurant",4.3,134,1,1,0,0,FL,Miami
La Fontana Downtown,"La Fontana Downtown, 9 W Flagler St, Miami, FL 33130",0x88d9b75971ace67b:0x959df3ed3df7337e,25.7742582,-80.19383859999999,Restaurant,4.4,7,1,1,1,0,FL,Miami
Baywood Local Eatery,"Baywood Local Eatery, 7010 Biscayne Blvd, Miami, FL 33138",0x88d9b33e79f066d1:0xdd0ec6c22dc2cd7c,25.8397641,-80.184463,Restaurant,4.5,38,1,1,1,0,FL,Miami
Wok Masters by Moy,"Wok Masters by Moy, 6907 S Red Rd, Miami, FL 33143",0x88d9c7e5ca8587cf:0x35431fd9edb320bc,25.704978999999998,-80.285302,Restaurant,4.5,4,1,1,1,0,FL,Miami
Aja Food Truck (Bird Road),"Aja Food Truck (Bird Road), 6795 SW 40th St, Miami, FL 33155",0x88d9b98bc8fedd3d:0xb349e42deb4f228,25.733689,-80.3044879,Fast food restaurant,4.5,24,0,1,0,0,FL,Miami
Sushi Express (Delivery lunch & Catering ),"Sushi Express (Delivery lunch & Catering ), 3995 NW 25th St, Miami, FL 33142",0x88d9b980d4d86b0f:0xa6526c09513bda3d,25.798781599999998,-80.261611,"Sushi takeaway, Delivery Restaurant",4.5,46,1,1,1,0,FL,Miami
Esencias Cafe,"Esencias Cafe, 7500 NW 25th St STE 103, Miami, FL 33122",0x88d9b99c54d9fb41:0xa89a41a1e19b7fb6,25.796297799999998,-80.3197521,Restaurant,4.6,45,1,1,1,0,FL,Miami
Crab Du Jour Cajun Seafood & Bar,"Crab Du Jour Cajun Seafood & Bar, 3201 N Miami Ave Unit 106, Miami, FL 33127",0x88d9b1f38dff4dff:0x61443de98cd9c88c,25.80792,-80.1943823,"Seafood restaurant, Bar, Cajun restaurant, Chicken wings restaurant",4.7,88,1,1,1,0,FL,Miami
Wasska Lounge,"Wasska Lounge, 111 NE 3rd Ave, Miami, FL 33132",0x88d9b69e16775205:0x9acda311ea9a90bd,25.7756515,-80.1885321,Bar & grill,4.7,7,0,1,1,0,FL,Miami
Miami's Finest Pizza,"Miami's Finest Pizza, 12835 SW 42nd St, Miami, FL 33175",0x88d9bf56d7b0acd1:0x4fd1d89cbd47fe7f,25.7301236,-80.4024295,"Pizza restaurant, Restaurant",4.7,18,1,1,0,0,FL,Miami
Chicken pollo,"Chicken pollo, 8861 SW 40th St, Miami, FL 33165",0x88d9b9b3d12ce4e9:0x8f231a1fa8bed46d,25.7332015,-80.33924569999999,Fast food restaurant,4.8,18,1,1,0,0,FL,Miami
Pizzarello Miami,"Pizzarello Miami, 11735 SW 147th Ave #3, Miami, FL 33196",0x88d9c1b68efc1d09:0x60c2ba03c4fce6b4,25.6581357,-80.43088,"Pizza restaurant, Mobile caterer",4.8,47,1,1,0,0,FL,Miami
Pizza cubana& Italiana Dileo's House LLC,"Pizza cubana& Italiana Dileo's House LLC, 7300 W Flagler St, Miami, FL 33144",0x88d9b714af842939:0xbc6dc5c9cb27536e,25.769771799999997,-80.31392129999999,Pizza restaurant,4.9,38,1,1,1,0,FL,Miami
GALIPAN Bistro,"GALIPAN Bistro, 1741 NE 2nd Ave, Miami, FL 33132",0x88d9b7078225f219:0x900a10d7bb0fb51f,25.7925328,-80.1902745,"Fast food restaurant, Hamburger restaurant, Venezuelan restaurant",4.9,57,1,1,1,0,FL,Miami
Rinconcito Miami #5 - Kendall Breeze,"Rinconcito Miami #5 - Kendall Breeze, 12700 SW 128th St, Miami, FL 33186",0x88d9c1f2ac59568b:0x7e92fe0dcd4a9311,25.6485482,-80.39962469999999,Latin American restaurant,4.9,55,1,1,1,0,FL,Miami
Mediterraneum Street Food,"Mediterraneum Street Food, 2960 Coral Way, Miami, FL 33145",0x88d9b73cddd660ed:0x584bf233ffdfa17c,25.7500163,-80.2418323,"Mediterranean restaurant, Spanish restaurant, Tapas restaurant",4.9,58,1,1,1,0,FL,Miami
Sokai Kendall,"Sokai Kendall, 11735 SW 147th Ave #23, Miami, FL 33196",0x88d9c1b64bf86c6d:0xbebb89fbc819d355,25.657633,-80.43101829999999,Restaurant,4.9,48,1,1,0,0,FL,Miami
Donde TImmy,"Donde TImmy, 12241 SW 112th St, Miami, FL 33186",0x88d9c1405a079a6f:0x441f7f37d45c70dd,25.6618838,-80.39362679999999,"Fast food restaurant, Restaurant",4.9,15,1,1,1,0,FL,Miami
Signatures7,"Signatures7, 2250 NW 2nd Ave, Miami, FL 33127",0x88d9b7ec39637c5f:0x2605d817e4adc732,25.798617699999998,-80.1994059,Restaurant,5.0,1,1,1,1,0,FL,Miami
La Cocotte,"La Cocotte, 150 W Flagler St, Miami, FL 33130",0x88d9b69a3c5e59e1:0xc570c74bc88092f1,25.7735721,-80.1970523,Restaurant,5.0,4,0,1,0,0,FL,Miami
Dave Jamaican Bakery & Restaurant,"Dave Jamaican Bakery & Restaurant, 700 NW 183rd St, Miami, FL 33169",0x88d9ae5eeef3acaf:0xf8a05c837983f62,25.941816199999998,-80.2135672,Jamaican restaurant,3.8,38,0,0,0,0,FL,Miami
Breakfast beauties,"Breakfast beauties, 2022 NW 21st Ave, Miami, FL 33142",0x88d9b739ebf03117:0xd4a4ad89c6535158,25.7951348,-80.2295432,Breakfast restaurant,1.4,8,0,1,0,0,FL,Miami
El Sabor Boricua,"El Sabor Boricua, Mobile Food Truck, Miami, FL 33167",0x88d9b036aaaaaaab:0xd60ae806106dc219,25.8830363,-80.2377078,Fast food restaurant,5.0,3,0,1,0,0,FL,Miami
Chez Anouse,"Chez Anouse, 5616 NW 2nd Ave B, Miami, FL 33127",0x88d9b142992ac7ff:0x7d6fc486b5a1fb3d,25.827415799999997,-80.2003506,Restaurant,4.2,8,0,1,0,0,FL,Miami
Runway Grille & Deli,"Runway Grille & Deli, 7415 Corporate Center Dr, Miami, FL 33126",0x88d9b99efd88d2eb:0xe5eca45e19ff632a,25.791843,-80.318055,"Deli, Restaurant",3.7,25,0,0,0,0,FL,Miami
La Boulangerie Lebanese,"La Boulangerie Lebanese, 1800 SW 27th Ave, Miami, FL 33145",0x88d9b708a63776f1:0x9f53662a9c0347f7,25.7545112,-80.23863539999999,Restaurant,4.9,15,0,0,0,0,FL,Miami
Pepitería 13,"Pepitería 13, 0131250040190, Miami, FL 33137",0x88d9b768cf818011:0x30a66db5da9d52bf,25.8038469,-80.1939712,Restaurant,4.7,3,0,0,0,0,FL,Miami
Momi Gyoza Bar,"Momi Gyoza Bar, 1036 S Miami Ave, Miami, FL 33130",0x88d9b68408e470d9:0x56d0852e8241d18b,25.7638248,-80.1933181,Japanese restaurant,4.6,5,0,1,0,0,FL,Miami
Hungry Howie's Pizza & Subs,"Hungry Howie's Pizza & Subs, 3206 Grand Ave, Miami, FL 33133",0x88d9b7c50525c001:0xb4dad3c0c260c665,25.7277584,-80.2454521,"Pizza restaurant, Chicken wings restaurant, Delivery Restaurant, Takeout Restaurant, Pizza delivery, Pizza Takeout, Salad shop, Sandwich shop",4.3,18,0,0,0,0,FL,Miami
Rust Wynwood,"Rust Wynwood, 2621 NW 2nd Ave space 28, Miami, FL 33127",0x88d9b6b283ddca3d:0x24b03b734fb6b83a,25.801769,-80.198917,"Bar & grill, Restaurant",3.8,38,0,0,0,1,FL,Miami
Quiznos,"Quiznos, 13710 SW 56th St, Miami, FL 33175",0x88d9c07b4639687d:0xef94d9d46bc5ba2a,25.712592599999997,-80.4155298,"Sandwich shop, Caterer, Deli, Fast food restaurant, Restaurant",4.6,8,0,0,0,0,FL,Miami
Alacarte Delivery,"Alacarte Delivery, 3221 NE 2nd Ave, Miami, FL 33137",0x88d9b48851c8d60f:0xeb63c71176a97c91,25.807410899999997,-80.19094319999999,"Delivery Restaurant, Restaurant",3.8,17,0,0,0,0,FL,Miami
Lima Services of Miami,"Lima Services of Miami, 2140 W Flagler St #104, Miami, FL 33135",0x88d9b6e2c33948b5:0x648da89bd782482e,25.7724174,-80.2300836,"General store, Airline ticket agency, Courier service, Delivery service, Gift shop, Money transfer service, Peruvian restaurant, Shipping service",4.3,7,0,0,0,0,FL,Miami
Sabores by Chef James,"Sabores by Chef James, 4100 W Flagler St, Miami, FL 33134",0x88d9b77052aac141:0xb5e9541810cbe2f4,25.7714371,-80.2627223,Pan-Latin restaurant,4.1,33,0,0,0,0,FL,Miami
I love ny pizza,"I love ny pizza, 15725 SW 72nd St, Miami, FL 33193",0x88d9c023c86a5ae3:0xa445517799bf39fb,25.700191999999998,-80.44805,"Pizza delivery, Takeout Restaurant, Pizza restaurant",3.4,24,0,0,0,0,FL,Miami
La Ceiba Restaurant Cafe,"La Ceiba Restaurant Cafe, 6212 SW 8th St, Miami, FL 33144",0x88d9b834d7f2fba1:0xcf9b90dbd3290036,25.762985,-80.2963456,Honduran restaurant,4.0,58,0,0,0,0,FL,Miami
Gran pollo,"Gran pollo, 7500-7770 NW 12th Ct, Miami, FL 33147",0x88d9b10f1c9ab743:0xed9ee78052eb63c0,25.844551,-80.218498,Chicken restaurant,4.3,8,0,0,0,0,FL,Miami
El Aguila Restaurant,"El Aguila Restaurant, 2291 NW 36th St, Miami, FL 33142",0x88d9b0d5a09039cd:0x5bce53d02e7ad76d,25.809485,-80.23392,Dominican restaurant,3.8,18,0,0,0,0,FL,Miami
Pizzería La Guacamaya,"Pizzería La Guacamaya, 12835 SW 42nd St, Miami, FL 33175",0x88d9bf7c7bce46bb:0xe01dde47c33fabf0,25.7301683,-80.4026567,"Pizza restaurant, Italian restaurant",4.7,28,0,1,0,0,FL,Miami
Pan American Cafe,"Pan American Cafe, 445 NW 12th Ave, Miami, FL 33128",0x88d9b6ebdadafb09:0x5f07e5b01ffc9a59,25.778254,-80.2146061,Cuban restaurant,4.4,28,0,1,1,0,FL,Miami
The DRB,"The DRB, 255 NE 14th St, Miami, FL 33132",0x88d9b6a70f955617:0xd267b183bbfcbadf,25.788390999999997,-80.1894475,"Restaurant, Bar",4.0,7,0,1,1,0,FL,Miami
Waxy O'Connor's,"Waxy O'Connor's, 690 SW 1st Ct, Miami, FL 33130",0x88d9b68526aa9fe7:0xe5638560b1428fae,25.767835599999998,-80.1962315,"Bar, Restaurant",4.6,5,0,1,1,0,FL,Miami
El Encanto Restaurant,"El Encanto Restaurant, 2148 NW 17th Ave, Miami, FL 33142",0x88d9b6d05824a509:0xf05ea2f523fc131a,25.7962882,-80.2234682,"Restaurant, Bar & grill",4.2,18,0,1,1,0,FL,Miami
Sabor Hondureño Cafetería Restaurant,"Sabor Hondureño Cafetería Restaurant, 722 W Flagler St, Miami, FL 33130",0x88d9b693a5e7ae35:0xeaac107e29615e39,25.7736187,-80.2066188,Honduran restaurant,4.4,8,0,1,1,0,FL,Miami
La Masica Cafeteria & Restaurante,"La Masica Cafeteria & Restaurante, 311 SW 12th Ave, Miami, FL 33130",0x88d9b6edf6328eed:0x3d90c20ea3fac661,25.7703794,-80.2144359,Honduran restaurant,4.6,68,0,1,1,0,FL,Miami
Tony´s Venezuelan Street Food,"Tony´s Venezuelan Street Food, 2600 NE 2nd Ave, Miami, FL 33137",0x88d9b6ab1171e225:0xee8b7aa5156ec770,25.801799499999998,-80.19128119999999,Venezuelan restaurant,4.9,13,0,1,1,0,FL,Miami
Bijon Restaurant,"Bijon Restaurant, 825 NW 119th St, Miami, FL 33168",0x88d9b1c3a56d1c63:0x72339941545153a1,25.8842054,-80.21341699999999,"African restaurant, Restaurant",4.1,8,0,1,1,0,FL,Miami
Lala's Seafood,"Lala's Seafood, 3195 NW 20th St, Miami, FL 33142",0x88d9b73a3fbac151:0xf36472990bbd45c,25.7942809,-80.24758969999999,Seafood restaurant,4.0,4,1,1,0,0,FL,Miami
DHABA INDIAN KITCHEN,"DHABA INDIAN KITCHEN, 56 NE 14th St, Miami, FL 33132",0x88d9b7b9db493d23:0xf1e67c8d3e84c1c1,25.788195899999998,-80.19305419999999,Indian restaurant,4.6,78,1,1,0,0,FL,Miami
Cafe Lago,"Cafe Lago, 9333 NW 12th St, Miami, FL 33172",0x88d9b93c6cf3c543:0x3d535fbaec59d8f6,25.783561,-80.34720999999999,Cuban restaurant,4.0,33,1,1,0,0,FL,Miami
Runway Grille & Deli Restaurant,"Runway Grille & Deli Restaurant, 790 NW 107th Ave # 100, Miami, FL 33172",0x88d9bed3b08c4e01:0x710b8faea6018000,25.777707,-80.3706916,American restaurant,4.4,13,1,1,0,0,FL,Miami
Agua Roja Miami,"Agua Roja Miami, 8872 SW 24th St #2008, Miami, FL 33165",0x88d9b8eb93e30f25:0x55c7d06d016e9cd8,25.7471313,-80.3389351,Bar & grill,4.4,45,1,0,0,0,FL,Miami
Sushi Yasu Tanaka,"Sushi Yasu Tanaka, 140 NE 39th St STE 241, Miami, FL 33137",0x88d9b1829d7fff89:0x5b20b47854aab7da,25.8123337,-80.1917201,"Sushi restaurant, Sushi takeaway",5.0,14,1,0,0,0,FL,Miami
Caesar's Acai Bowl,"Caesar's Acai Bowl, 609 Brickell Ave, Miami, FL 33131",0x88d9b8b97c7e417f:0xd354984a7d981f20,25.767495399999998,-80.1891038,Health food restaurant,4.6,28,1,0,0,1,FL,Miami
Indopak Curry Spices,"Indopak Curry Spices, 18901 SW 106th Ave, Miami, FL 33157",0x88d9c4799e643b7f:0xbfb4c7497317f5a,25.5901832,-80.3618827,"Spice store, Convenience store, Discount store, Grocery store, Indian grocery store, Indian restaurant, Organic restaurant, Pakistani restaurant",4.7,16,1,0,0,0,FL,Miami
Food Trucks Fridays at Tamiami Park,"Food Trucks Fridays at Tamiami Park, 11201 SW 24th St, Miami, FL 33175",0x88d9bf383b96835b:0x738f97887acfb272,25.748584599999997,-80.3771941,"Food court, Restaurant",3.8,6,1,0,0,0,FL,Miami
Cold Stone Creamery,"Cold Stone Creamery, 12536 SW 120th St, Miami, FL 33186",0x88d9c11259cc8499:0x5d3513de607329c7,25.656767,-80.398,"Ice cream shop, Cake shop, Dessert restaurant, Frozen yogurt shop",2.5,24,1,0,0,0,FL,Miami
Gualt's Gourmet Italian Café,"Gualt's Gourmet Italian Café, 201 S Biscayne Blvd #4332, Miami, FL 33131",0x88d9b4277a965e9f:0xedf08b90ff765ff,25.772095099999998,-80.1867219,"Coffee shop, Cafe, Restaurant",4.7,18,1,1,0,0,FL,Miami
Los Gauchos CBS,"Los Gauchos CBS, 6605 SW 127th Ave, Miami, FL 33183",0x88d9c161f67332d9:0x2641685fb81b4fd8,25.7053184,-80.3987884,Barbecue restaurant,4.9,18,1,1,0,0,FL,Miami
Arere Cuban Cuisine,"Arere Cuban Cuisine, 19100 SW 177th Ave, Miami, FL 33187",0x88d9e9fb8969730d:0xd61f4f6006f5d5d6,25.5872524,-80.4790656,Restaurant,5.0,1,1,1,0,0,FL,Miami
Sabores latinos,"Sabores latinos, 14145 SW 142nd Ave, Miami, FL 33186",0x88d9c1889558028d:0xc5d80c56f93ba39e,25.6360192,-80.4226462,"Nicaraguan restaurant, Delivery Restaurant",4.6,58,1,1,0,0,FL,Miami
Lee's Deli Market Sushi,"Lee's Deli Market Sushi, 28 SE 1st Ave, Miami, FL 33131",0x88d9b69e0f7da63b:0x4a1cf6a01d503369,25.7736307,-80.1919791,"Oriental goods store, Sushi restaurant",4.7,6,1,0,0,0,FL,Miami
Sabrocito corp,"Sabrocito corp, 11640 Quail Roost Dr, Miami, FL 33157",0x88d9c30159a63a2b:0x464538ee380a1225,25.590319299999997,-80.3798882,Cuban restaurant,5.0,1,1,1,0,0,FL,Miami
Rincon Caribeno,"Rincon Caribeno, 11180 W Flagler St, Miami, FL 33174",0x88d9bf280d7c90a7:0xed05e00344fbe5e2,25.7680212,-80.3762636,"Cuban restaurant, Mexican restaurant",4.0,14,1,1,1,0,FL,Miami
Fonda Sabaneta,"Fonda Sabaneta, 10855 SW 72nd St #47, Miami, FL 33173",0x88d9c1d3939d3883:0x407f9a30fd01a9f7,25.702202699999997,-80.36989969999999,Colombian restaurant,4.9,98,1,1,1,0,FL,Miami
Havanos Cafe,"Havanos Cafe, 14417 SW 42nd St, Miami, FL 33175",0x88d9bf6921283a37:0x70603eb34c5857f5,25.729433399999998,-80.4281804,Cuban restaurant,4.9,38,1,1,1,0,FL,Miami
China Buffet,"China Buffet, 11379 SW 40th St, Miami, FL 33165",0x88d9bf5ad06adc7f:0x9eb026b7e15c9e90,25.7337353,-80.37916299999999,"Chinese restaurant, Buffet restaurant, Restaurant",2.6,68,1,1,1,0,FL,Miami
The Seafood Bar & Market,"The Seafood Bar & Market, 2001 Biscayne Blvd, Miami, FL 33137",0x88d9b7d53f6a8ce7:0x8ceb6e9f3e6dd368,25.7952332,-80.1887983,Restaurant,4.4,8,1,1,1,0,FL,Miami
Gordon Biersch,"Gordon Biersch, 1201 Brickell Ave # 1, Miami, FL 33131",0x88d9b6816f200f7f:0x19f237dff905ca6b,25.7619527,-80.1914567,"Bar, American restaurant, Restaurant",3.6,8,1,1,1,0,FL,Miami
Un Believe A Bowl,"Un Believe A Bowl, 14621 SW 56th St, Miami, FL 33175",0x88d9c11019dc13cf:0xe19d1999d606306c,25.7139618,-80.4295851,Restaurant,5.0,18,1,1,1,0,FL,Miami
Mexico1810 Taqueria,"Mexico1810 Taqueria, 1778 NW 36th St, Miami, FL 33142",0x88d9b1d2125e8d39:0x568e1adb5662943,25.8092905,-80.2254979,Mexican restaurant,4.7,6,1,1,1,1,FL,Miami
Chatos Night Club,"Chatos Night Club, 2917 NW 7th St, Miami, FL 33125",0x88d9b719c26d0a43:0x7299af59d39b2297,25.779690199999997,-80.24229629999999,"Night club, Bar, Dance club, Latin American restaurant, Restaurant",3.9,68,1,1,1,0,FL,Miami
Umami Burger,"Umami Burger, 1324 SW 1st Ave, Miami, FL 33130",0x88d9b7927ee3e477:0xf9fb87037179b1af,25.7610063,-80.1949526,Hamburger restaurant,2.1,38,1,1,1,0,FL,Miami
ZZ's Club,"ZZ's Club, 151 NE 41st St Suite 117, Miami, FL 33137",0x88d9b128716dbab3:0x51891a87c7edc357,25.814406299999998,-80.1920834,Restaurant,4.6,8,1,1,1,0,FL,Miami
Rocco's Pizza Lounge,"Rocco's Pizza Lounge, 8865 SW 72nd Pl, Miami, FL 33156",0x88d9c651848d623d:0xf65c44de0e9b095e,25.6878288,-80.312731,"Restaurant, Pizza restaurant",4.3,3,1,1,1,0,FL,Miami
Exito Cafe,"Exito Cafe, 2336 NW 7th St, Miami, FL 33125",0x88d9b71e459b9d89:0x6b20be5ddf043439,25.779485899999997,-80.2339922,"Cuban restaurant, Banquet hall",4.0,35,1,1,1,0,FL,Miami
Mana Poke Downtown Miami,"Mana Poke Downtown Miami, 888 Biscayne Blvd CU1A, Miami, FL 33132",0x88d9b78c9b696ecf:0xb8418f337b696553,25.7821082,-80.1902764,"Asian fusion restaurant, Hawaiian restaurant, Restaurant, Seafood restaurant, Sushi restaurant",4.9,28,1,1,1,0,FL,Miami
Miami Smokers Express,"Miami Smokers Express, 1000 S Miami Ave, Miami, FL 33130",0x88d9b6840cefb955:0x943787f4daeeda0,25.7642845,-80.1935585,"Restaurant, American restaurant",5.0,2,1,1,1,0,FL,Miami
Subway,"Subway, 7500 NW 25th St Suite 107, Miami, FL 33122",0x88d9b99dad3337b9:0x9c1b2358bdf46fc,25.796242499999998,-80.3198609,"Sandwich shop, Caterer, Fast food restaurant, Takeout Restaurant, Restaurant",3.8,38,1,1,1,0,FL,Miami
Caviar Russe Miami,"Caviar Russe Miami, 1441 Brickell Ave Ground Lobby at the Four Seasons Tower, Miami, FL 33131",0x88d9b7e0ed8cdff9:0xfc0b40b34b86f69d,25.758689,-80.19142959999999,"Fine dining restaurant, Gourmet grocery store",4.4,7,1,1,1,0,FL,Miami
HotLime Tacos & Ceviches - MIA Market,"HotLime Tacos & Ceviches - MIA Market, 140 NE 39th St STE 241, Miami, FL 33137",0x88d9abc90f605ab7:0x773b4979c6d774a9,25.8122458,-80.1914912,"Mexican restaurant, Seafood restaurant, Taco restaurant",4.1,18,1,1,1,0,FL,Miami
Caffé Paradiso Miami,"Caffé Paradiso Miami, 114 NE 20th Terrace, Miami, FL 33137",0x88d9b7d591e60669:0xd36cf00540e1407d,25.795828,-80.1923231,Italian restaurant,5.0,2,1,1,1,0,FL,Miami
Zing Restaurant & Wine Bar,"Zing Restaurant & Wine Bar, 97 NW 25th St STE 101, Miami, FL 33127",0x88d9b6ada6c729d3:0x7e9f7d754ff50132,25.8009724,-80.1968581,"Asian fusion restaurant, Wine bar",4.0,1,1,0,1,0,FL,Miami
Wynwood Gardens,"Wynwood Gardens, 2038 NW 5th Pl, Miami, FL 33127",0x88d9b6b6d51d7383:0x6a56be32436a175f,25.7956918,-80.2045581,Restaurant,4.1,8,1,1,1,0,FL,Miami
K BAB,"K BAB, 8888 SW 136th St, Miami, FL 33176",0x88d9c75183f0e43b:0xffd9377cd2fd9fc0,25.6458369,-80.3398814,Restaurant,4.8,54,1,1,1,0,FL,Miami
El Emperador Fish Market,"El Emperador Fish Market, 799 SW 73rd Ct, Miami, FL 33144",0x88d9b8536c585c9f:0x8e13bfdc53347c6,25.763301799999997,-80.314436,Restaurant,4.5,8,1,1,1,0,FL,Miami
Restaurant Peruano,"Restaurant Peruano, SW 34th Ave, Miami, FL 33145",0x88d9b7a350097677:0xa98ec6a131ded287,25.7498653,-80.24948859999999,Restaurant,4.3,8,1,1,1,0,FL,Miami
Jon Smith Subs,"Jon Smith Subs, 161 SE 1st St, Miami, FL 33131",0x88d9b69c339147f1:0x3f5b188eacdddf61,25.773599899999997,-80.19060329999999,"Sandwich shop, American restaurant, Caterer, Cheesesteak restaurant, Deli, Fast food restaurant, Restaurant",4.4,36,1,1,1,0,FL,Miami
Doma Polo Bistro,"Doma Polo Bistro, 900 Biscayne Blvd, Miami, FL 33132",0x88d9b6a0ff51f367:0x416789a038377802,25.7834355,-80.190181,"Argentinian restaurant, Steak house",3.7,3,1,0,1,0,FL,Miami
Sushi-Mee,"Sushi-Mee, 8228 W Flagler St, Miami, FL 33144",0x88d9b903ae95294d:0xf20922a74306cec8,25.7689238,-80.3286845,Sushi restaurant,4.8,5,1,1,1,0,FL,Miami
Taqueria los Jalapenos,"Taqueria los Jalapenos, 14264 SW 8th St, Miami, FL 33184",0x88d9bff35106808f:0xb08c732bdfec9983,25.760502199999998,-80.425775,Mexican restaurant,4.7,8,1,1,1,0,FL,Miami
Pizzas Buenas,"Pizzas Buenas, 11300 Quail Roost Dr, Miami, FL 33157",0x88d9c38ff95aaaab:0xa19e72773579cd74,25.593883599999998,-80.3766084,Pizza restaurant,4.6,8,1,1,1,0,FL,Miami
Mr Ceviche Peruvian Restaurant,"Mr Ceviche Peruvian Restaurant, 2001 Biscayne Blvd, Miami, FL 33137",0x88d9b7b1f1f6b0f5:0xe7f88d3def8e2e1,25.7952598,-80.1888439,"Peruvian restaurant, Latin American restaurant",4.5,88,1,1,1,0,FL,Miami
SHAWARMA XPRESS FOOD TRUCK,"SHAWARMA XPRESS FOOD TRUCK, 6475 NW 87th Ave, Miami, FL 33178",0x88d9bb3bcd376597:0x251970309ce0f433,25.831974199999998,-80.3376297,Restaurant,4.4,17,1,0,1,0,FL,Miami
Conos Miami,"Conos Miami, 150 NW 24th St, Miami, FL 33127",0x88d9b5d6e8db4665:0x817cd680a5eb94e,25.7997008,-80.19783679999999,Restaurant,4.9,97,1,0,1,0,FL,Miami
Corvina House,"Corvina House, 7844 Coral Way, Miami, FL 33155",0x88d9b9487fae5d61:0xf387622786666de7,25.747607,-80.3230732,Restaurant,4.5,24,1,1,1,0,FL,Miami
Pan Pa Ya,"Pan Pa Ya, 26 SW 8th St, Miami, FL 33130",0x88d9b6848f619d39:0x1c8e15cd5d08c8e7,25.7660563,-80.193649,"Colombian restaurant, Latin American restaurant",2.4,24,0,0,0,0,FL,Miami
Fritanga el Torito,"Fritanga el Torito, 12891 SW 42nd St, Miami, FL 33175",0x88d9bf7c73656ea9:0x4e02b4fe03f53ff5,25.7302701,-80.4034424,Nicaraguan restaurant,3.0,4,0,0,0,0,FL,Miami
La Pupusa Factory,"La Pupusa Factory, 1947 W Flagler St, Miami, FL 33135",0x88d9b6e36c859cb3:0xa9a5e651a22e92a3,25.7728562,-80.22781429999999,"Salvadoran restaurant, Restaurant",3.3,8,0,0,0,0,FL,Miami
Subway,"Subway, 8352 Mills Dr, Miami, FL 33183",0x88d9c0c3a05a45df:0xb3d1f93ccfb2da60,25.6898643,-80.38809619999999,"Sandwich shop, Fast food restaurant, Takeout Restaurant, Restaurant",3.4,26,0,0,0,0,FL,Miami
Poké At Woodfers Cafe,"Poké At Woodfers Cafe, 2000 NW 2nd Ave #4825, Miami, FL 33127",0x88d9b6b1d39ca57b:0x2640448f845f8d39,25.795732899999997,-80.19906,Hawaiian restaurant,3.7,16,1,0,1,0,FL,Miami
Dr.Limon Express,"Dr.Limon Express, 5701 Sunset Dr #194, Miami, FL 33143",0x88d9c7a2511ab00d:0xa7b005216bc417af,25.7053567,-80.286355,Restaurant,3.7,7,1,0,1,0,FL,Miami
La Paisana Restaurant,"La Paisana Restaurant, 200 NW 8th Ave A, Miami, FL 33128",0x88d9b6949c4248cd:0x402a1ac167dd6a42,25.7757728,-80.2079479,Honduran restaurant,3.8,17,0,0,0,0,FL,Miami
Subway,"Subway, 10728 NW 74th St Unit #5, Miami, FL 33185",0x88d9bc74bd3d15b9:0x238ad8199b7638cf,25.8393031,-80.37121359999999,"Sandwich shop, Caterer, Fast food restaurant, Takeout Restaurant, Restaurant",3.8,44,0,0,0,0,FL,Miami
Kurvan Wynwood,"Kurvan Wynwood, 2250 NW 2nd Ave, Miami, FL 33127",0x88d9b7bb530a5703:0x23d61d42a5c98ad0,25.7987371,-80.1995963,Fast food restaurant,3.8,4,0,0,0,0,FL,Miami
Charcoal Garden Bar + Grill,"Charcoal Garden Bar + Grill, 82 NW 29th St, Miami, FL 33127",0x88d9b6ad31abd709:0xe0484c86b6a08d31,25.803628,-80.19673399999999,"Bar & grill, Restaurant",3.9,44,0,0,0,0,FL,Miami
Casa Bakery,"Casa Bakery, 8100 SW 8th Ct, Miami, FL 33144",0x88d9b8fe9eb00059:0x5a5dba5bbd824eb2,25.7619583,-80.3265761,Pizza restaurant,4.0,3,0,0,0,0,FL,Miami
Instant Zen nail bar & Day Spa,"Instant Zen nail bar & Day Spa, 13500 SW 88th St STE 291, Miami, FL 33186",0x88d9c0565fe0f095:0x9c679464b9038abe,25.6847171,-80.4139786,"Bar & grill, Shopping mall",4.1,8,0,0,0,0,FL,Miami
Di Pompei,"Di Pompei, 626 S Miami Ave, Miami, FL 33130",0x88d9b684a4438927:0xf4a34be7784af9eb,25.7678212,-80.193551,"Pizza restaurant, Beer garden, Cocktail bar, Hookah bar, Live music bar, Live music venue, Pizza delivery",4.1,68,1,0,1,0,FL,Miami
Havana Rick's Cafe Restaurant,"Havana Rick's Cafe Restaurant, 1311 SW 107th Ave, Miami, FL 33174",0x88d9bf32f23fb171:0xc56d0401406f31e0,25.756518999999997,-80.3674327,"Cuban restaurant, Venezuelan restaurant",4.1,47,1,0,0,0,FL,Miami
Mia Cafe,"Mia Cafe, 2691 NE 203rd St, Miami, FL 33180",0x88d9ac5e060d9e6b:0x3e583d42bfe7c999,25.964112999999998,-80.14822199999999,"Sandwich shop, Coffee shop, Delivery Restaurant",4.2,28,1,0,0,1,FL,Miami
Hobart Service,"Hobart Service, 9100 NW 7th Ave, Miami, FL 33150",0x88d9b1a2065a972f:0xbdf3ff4b6121b83f,25.858396,-80.21002899999999,"Appliance repair service, Appliance parts supplier, Kitchen supply store, Restaurant supply store, Store",4.3,15,1,0,0,0,FL,Miami
Olive Tree Market,"Olive Tree Market, 9724 SW 168th St, Miami, FL 33157",0x88d9c56339d1d697:0xa3f49f6e1d892991,25.613502,-80.3498616,"Grocery store, Asian grocery store, Indian grocery store, Israeli restaurant, Korean grocery store, Kosher grocery store, Middle Eastern restaurant",4.3,7,1,0,0,0,FL,Miami
Pasilla Tacos,"Pasilla Tacos, 56 NW 29th St #3928, Miami, FL 33127",0x88d9b6ad2e674aeb:0x9dab3d3da0f10ee8,25.8036815,-80.19642069999999,Mexican restaurant,4.3,26,1,0,1,0,FL,Miami
TEMPORARILY CLOSED DUE TO FIRE The Olde River Pizzeria & Tavern,"TEMPORARILY CLOSED DUE TO FIRE The Olde River Pizzeria & Tavern, 620 NE 78th St, Miami, FL 33138",0x88d9b3d45a07e41f:0x7a50b9b9f5ea6018,25.846792999999998,-80.184015,Restaurant,4.4,7,1,0,1,0,FL,Miami
L'Entrecote de Paris,"L'Entrecote de Paris, 1053 SE 1st Ave, Miami, FL 33131",0x88d9b683f173090b:0xa8a6573f4a20c82f,25.763314899999997,-80.1922682,"French restaurant, Bistro, French steakhouse restaurant",4.4,8,1,0,0,0,FL,Miami
NIDO Mozzarella Bar,"NIDO Mozzarella Bar, 11052 Biscayne Blvd, Miami, FL 33161",0x88d9b21465888881:0xf1c97faf98b455ad,25.877391,-80.1686618,Italian restaurant,4.5,28,1,0,1,0,FL,Miami
Epicerie Art Cafe,"Epicerie Art Cafe, 195 NW 36th St, Miami, FL 33127",0x88d9b14e071e2a93:0x14df40478dceb05b,25.8105324,-80.1990691,Restaurant,4.5,58,0,0,1,0,FL,Miami
Kitchen Grill,"Kitchen Grill, 8444 SW 8th St, Miami, FL 33144",0x88d9b8e34a8b1d1b:0x7b6a73e13ad8b5ee,25.761601,-80.33330029999999,Restaurant,4.6,7,0,0,0,0,FL,Miami
Casabe 305 Bistro,"Casabe 305 Bistro, 1762 Coral Way, Miami, FL 33145",0x88d9b650fbe37305:0x5b1f9f169bb15f,25.750557,-80.223483,"Venezuelan restaurant, Restaurant",4.6,68,0,0,0,0,FL,Miami
Dom Black Miami,"Dom Black Miami, 315 NW 25th St, Miami, FL 33127",0x88d9b7c8575f371d:0x63f2a0472e91f5d1,25.800858299999998,-80.2014227,"Hamburger restaurant, Beer garden, Delivery service",4.6,8,1,0,0,0,FL,Miami
Mighty's Kitchen,"Mighty's Kitchen, 17640 Homestead Ave #5340, Miami, FL 33157",0x88d9c412a4e7bccd:0x28ec2d5c6e5489c4,25.6047969,-80.354098,Seafood restaurant,4.6,8,0,0,0,0,FL,Miami
Clean Meals Miami,"Clean Meals Miami, 235 Park Blvd, Miami, FL 33126",0x88d9b68263bd6f89:0x10f5cd4fb273c87,25.772645299999997,-80.3264641,Delivery Restaurant,4.7,98,1,0,0,0,FL,Miami
Carvel,"Carvel, 14740 SW 56th St, Miami, FL 33185",0x88d9c06d507963d7:0x641515e1c382ff4f,25.7129735,-80.4321164,"Ice cream shop, Bakery, Cake shop, Dessert restaurant, Dessert shop",4.7,58,1,0,0,0,FL,Miami
Jackson Bros ice cream,"Jackson Bros ice cream, 401 NW 12th St #101, Miami, FL 33136",0x88d9b6bbd6c699b1:0x5c833f08f3a5bdd9,25.7858686,-80.2011327,"Ice cream shop, Hamburger restaurant",4.7,38,1,0,0,0,FL,Miami
Real Meals,"Real Meals, 196 NW 36th St, Miami, FL 33127",0x88d9b18824f729cb:0xec918ef6eae98f9b,25.810157699999998,-80.1992533,"Delivery Restaurant, Delivery service, Health food store",4.7,8,0,0,0,0,FL,Miami
Estela's Seafood and Sports Bar,"Estela's Seafood and Sports Bar, 10855 SW 72nd St UNIT 1-5, Miami, FL 33173",0x88d9c0b4f8bbd615:0x37f1d73fc53beebf,25.7018892,-80.3684959,Restaurant,4.8,15,0,0,1,1,FL,Miami
Pairings by Tomas Cuadrado Restaurant,"Pairings by Tomas Cuadrado Restaurant, 900 Biscayne Blvd #105, Miami, FL 33132",0x88d9b7a0a2f18521:0xdc8ad0942591be79,25.783461,-80.1899493,"Restaurant, Fine dining restaurant, Spanish restaurant, Wine bar",4.9,34,1,0,1,0,FL,Miami
Bucks Crepes,"Bucks Crepes, 600 NW 1st Ave, Miami, FL 33136",0x88d9b79f8b5c0c29:0xa81120aaeed92be3,25.779836,-80.1956711,"Crêperie, Dessert restaurant, French restaurant",4.9,37,1,0,1,0,FL,Miami
Chin De To Miami,"Chin De To Miami, 3000 N Miami Ave, Miami, FL 33127",0x88d9b1816ab0d315:0x3d44869d53356567,25.8054241,-80.19545149999999,"Fast food restaurant, Dominican restaurant, Sushi restaurant",5.0,8,1,0,0,0,FL,Miami
Orchid Sushi By Obba,"Orchid Sushi By Obba, 1605 SW 8th St, Miami, FL 33135",0x88d9b7420a90120d:0xbcb4a88e2da3fbaf,25.765849199999998,-80.2213448,Sushi restaurant,5.0,1,1,0,1,0,FL,Miami
Tanelus Caribbean Food,"Tanelus Caribbean Food, 3015 NW 79th St, Miami, FL 33147",0x88d9b0f13f000001:0xce247ffe7b8d7986,25.8472759,-80.2472915,Caribbean restaurant,5.0,2,0,0,0,0,FL,Miami
Panda Express,"Panda Express, 1850 NW 117th Pl Unit 301, Miami, FL 33182",0x88d9bf0226296dd5:0x2b13ee85e899c0c4,25.7913209,-80.38703799999999,"Chinese restaurant, Restaurant",3.1,18,1,1,0,0,FL,Miami
Villa Fresh Italian Kitchen,"Villa Fresh Italian Kitchen, 7501 SW 88th St, Miami, FL 33156",0x88d9c7a3b072e36b:0x9c0745738932dee,25.691264,-80.313746,"Pizza restaurant, Caterer, Delivery service, Italian restaurant, Pasta shop, Restaurant, Salad shop",3.3,18,0,1,0,0,FL,Miami
Daily Melt,"Daily Melt, 3401 N Miami Ave, Miami, FL 33127",0x88d9b153d9afd08d:0xfcd45d0c4f6c2e5b,25.809304599999997,-80.1936717,"Sandwich shop, Breakfast restaurant, Takeout Restaurant, Restaurant",3.3,4,1,1,1,0,FL,Miami
Chili's,"Chili's, 12750 SW 152nd St, Miami, FL 33177",0x88d9c39293122403:0xc080aaf5566201f1,25.6260563,-80.39622659999999,Restaurant,3.4,7,1,1,1,0,FL,Miami
Coral Cafe,"Coral Cafe, 5101 Blue Lagoon Dr, Miami, FL 33126",0x88d9b9df19df1001:0x97711e5a241d591c,25.7820158,-80.27866399999999,Breakfast restaurant,3.5,25,1,1,1,0,FL,Miami
Subway,"Subway, 8400 Coral Way, Miami, FL 33165",0x88d9b9ddefa3b34f:0xc6503d556b36a2fa,25.7458295,-80.33207929999999,Fast food restaurant,3.5,4,1,1,1,0,FL,Miami
La Carreta - Inside Mercy Hospital,"La Carreta - Inside Mercy Hospital, 3663 S Miami Ave, Miami, FL 33133",0x88d9b745a092350d:0xff8ccd0882dc072c,25.7400472,-80.2138245,Restaurant,3.6,8,1,1,1,0,FL,Miami
Dos Frijoles y un Cubano,"Dos Frijoles y un Cubano, 12895 SW 87th Ave, Miami, FL 33176",0x88d9c7bb7e93bd0b:0xfa932a639181eca8,25.6502025,-80.3340606,Restaurant,3.7,3,1,1,0,0,FL,Miami
Elwoods Gastro Pub,"Elwoods Gastro Pub, 188 NE 3rd Ave, Miami, FL 33132",0x88d9b69e3ecdba9f:0xec74b22462754ea7,25.7760023,-80.18885,"Pub, Hamburger restaurant, Restaurant, Wine bar",3.8,16,1,1,1,0,FL,Miami
Flagler Charbroiled Hamburger,"Flagler Charbroiled Hamburger, 7795 W Flagler St, Miami, FL 33144",0x88d9b90773621b79:0xfb58fbe48cee33b7,25.773548599999998,-80.32237429999999,"Hamburger restaurant, Restaurant",3.8,16,1,1,1,0,FL,Miami
The Mayhaw,"The Mayhaw, 0131240300100, Miami, FL 33137",0x88d9b1afad317bad:0x1af374efa9df9c55,25.8123185,-80.191559,Restaurant,3.8,4,1,1,1,0,FL,Miami
The Dirty Burgers,"The Dirty Burgers, 151 NW 24th St Unit 105, Miami, FL 33127",0x88d9b7d7df698939:0x2d0008a2a28b03d1,25.8001819,-80.1981855,"Restaurant, Hamburger restaurant",3.9,27,1,1,1,0,FL,Miami
Los Jarritos Restaurant,"Los Jarritos Restaurant, 2189 SW 1st St, Miami, FL 33135",0x88d9b6e2caf0c8a1:0x6fc3e7b9e5f2f6b,25.7715775,-80.2307867,Mexican restaurant,4.0,76,1,1,1,0,FL,Miami
Marina's Bar & Grill,"Marina's Bar & Grill, Biscayne Blvd Way, Miami, FL 33130",0x88d9b69fc92628e5:0x8cfd82e7c5cba070,25.7777897,-80.18859719999999,Bar & grill,4.1,14,1,1,1,0,FL,Miami
Kelly's Cajun Grill,"Kelly's Cajun Grill, 7501 N Kendall Dr, Miami, FL 33156",0x88d9c7a3b0055287:0xc4b44cae3464f7ea,25.691267,-80.313689,"Cajun restaurant, Restaurant",4.1,37,1,1,1,0,FL,Miami
Empire Pizzas & Wings,"Empire Pizzas & Wings, 980 NW 36th St, Miami, FL 33127",0x88d9b1b69513db5f:0x3724aa58379b4c37,25.8097989,-80.2114142,Pizza restaurant,4.1,53,1,1,0,0,FL,Miami
Krispy Krunchy Chicken @ Caraf Market 6151,"Krispy Krunchy Chicken @ Caraf Market 6151, 6151 NW 32nd Ave, Miami, FL 33142",0x88d9b197f4bb5c59:0x8dd4fdc9b1fbb0a9,25.830711899999997,-80.248902,"Fast food restaurant, Cajun restaurant, Chicken restaurant, Chicken wings restaurant, Fried chicken takeaway",4.2,25,1,1,0,0,FL,Miami
Tropical Perk Cafeteria,"Tropical Perk Cafeteria, 2000 S Dixie Hwy, Miami, FL 33133",0x88d9b64c24bac937:0xcef48ca51053ed8,25.743672699999998,-80.2266961,"Cuban restaurant, Cafe, Latin American restaurant",4.2,14,1,1,0,0,FL,Miami
La Feria del Mercado de San Miguel,"La Feria del Mercado de San Miguel, 301 Biscayne Blvd, Miami, FL 33132",0x88d9b420803c3369:0xc89b19d4bd0e20c4,25.777072999999998,-80.187445,Spanish restaurant,4.2,15,1,1,1,0,FL,Miami
La Esquina Tropical,"La Esquina Tropical, 1060 SW 8th St, Miami, FL 33130",0x88d9b6f3a073195f:0x8fb7f1b0d30816f6,25.765686,-80.212594,"Cuban restaurant, Latin American restaurant",4.2,78,1,1,0,0,FL,Miami
Taquería Guadalupana (food truck),"Taquería Guadalupana (food truck), 1550 NW 17th Ave, Miami, FL 33125",0x88d9b6fa352a465b:0x5a6b715387e85f41,25.7894912,-80.2233885,Fast food restaurant,4.3,44,1,1,1,0,FL,Miami
La Gata Cafeteria,"La Gata Cafeteria, 4329 SW 75th Ave, Miami, FL 33155",0x88d9b87cafd489dd:0x79eaa5b7c2c0be61,25.729633699999997,-80.3167765,Cuban restaurant,4.3,28,0,1,1,0,FL,Miami
Alegria Nica,"Alegria Nica, 140 SW 16th Ave, Miami, FL 33135",0x88d9b6e55a1210cd:0x9bb7ef9459592f1e,25.7714696,-80.2213945,Restaurant,4.3,28,1,1,1,0,FL,Miami
MADE IN ITALY FOOD TRUCK,"MADE IN ITALY FOOD TRUCK, 2875 NE 2nd Ave, Miami, FL 33137",0x88d9b5436ab2dfaf:0x76fdc23bad198b4f,25.8040043,-80.1907975,Italian restaurant,4.3,104,1,1,1,0,FL,Miami
Polaris Cafeteria,"Polaris Cafeteria, 1153 NW 22nd Ave, Miami, FL 33125",0x88d9b6dfedb361e3:0xad6b8ff98b6ce51d,25.783516199999998,-80.2303075,Salvadoran restaurant,4.4,68,0,1,1,1,FL,Miami
Kaori Miami,"Kaori Miami, 871 S Miami Ave, Miami, FL 33130",0x88d9b728a07a42fb:0xf472563f695f1c86,25.7657933,-80.1932282,Asian fusion restaurant,4.4,38,1,1,1,0,FL,Miami
Sushi Maki (Dadeland),"Sushi Maki (Dadeland), 6661 S Dixie Hwy, Miami, FL 33143",0x88d9c746a2cabce1:0x2dea3824848da787,25.693962,-80.3007224,"Sushi restaurant, Chinese restaurant, Japanese restaurant, Sushi takeaway",4.4,38,1,1,1,0,FL,Miami
BBQ RANCH EDNAMAR,"BBQ RANCH EDNAMAR, 3690 NW 54th St, Miami, FL 33142",0x88d9b0b8f8e30839:0x396d10d69dc069be,25.8230036,-80.2567538,Barbecue restaurant,4.4,58,1,1,1,0,FL,Miami
Tia Cacha Cafe,"Tia Cacha Cafe, 7241 Coral Way, Miami, FL 33155",0x88d9b85b784b02cf:0x9d1fb2e5a0a1b216,25.7484358,-80.3126719,Restaurant,4.4,76,1,1,1,0,FL,Miami
Elia Cafe & Mediterranean Products,"Elia Cafe & Mediterranean Products, 196 NW 36th St, Miami, FL 33127",0x88d9b14dfd9bdaa1:0xd7fc2f1907552607,25.810150099999998,-80.1992721,"Cafe, Market, Delivery Restaurant",4.5,27,1,1,1,0,FL,Miami
Isla Del Encanto,"Isla Del Encanto, 12100 SW 127th Ave, Miami, FL 33186",0x88d9c10d0f4dd40b:0x3ef4c258482b8d5d,25.656348899999998,-80.401299,Restaurant,4.5,25,1,1,1,0,FL,Miami
Gracies Grill,"Gracies Grill, 10700 NW 8th Ave # Gc, Miami, FL 33168",0x88d9b1bfa932e161:0xd9dd722eb6b2d21,25.8730011,-80.212313,Bar & grill,4.5,4,1,1,1,0,FL,Miami
Crafty Crab - The Falls,"Crafty Crab - The Falls, 8705 SW 136th St, Miami, FL 33176",0x88d9c7cd12db0959:0x99c4e9caf23d4dd5,25.6454164,-80.3347577,Restaurant,4.5,55,1,1,1,0,FL,Miami
Smoothie King,"Smoothie King, 11399 S Dixie Hwy, Miami, FL 33156",0x88d9c6f8d88f424b:0x8ac57661936d90ba,25.66446,-80.32385,"Juice shop, Fast food restaurant, Health food restaurant, Delivery Restaurant, Takeout Restaurant, Vitamin & supplements store",4.6,37,1,1,1,0,FL,Miami
Andy's Pizzeria,"Andy's Pizzeria, 15725 SW 72nd St #158, Miami, FL 33193",0x88d9c023b9c7251b:0xeb35c7b934e7cfc3,25.7005004,-80.44767,"Italian restaurant, Pizza delivery, Pizza Takeout",4.6,126,1,1,1,0,FL,Miami
Fire Kitchen and Bar,"Fire Kitchen and Bar, 8303 NE 2nd Ave, Miami, FL 33138",0x88d9b14854722281:0x2391c3fae553d7ce,25.8515959,-80.1926194,Restaurant,4.6,38,1,1,1,0,FL,Miami
Egg Sandwich,"Egg Sandwich, 20090 SW 177th Ave, Miami, FL 33187",0x88d9e9cfa813c6fd:0x34e3de2124d7501a,25.5789868,-80.4789282,Restaurant,4.7,6,1,1,0,0,FL,Miami
Society Nutrition,"Society Nutrition, 92 SW 3rd St CU3, Miami, FL 33130",0x88d9b7e4f1e1127f:0x936d591bce2039ba,25.7694913,-80.1950129,Health food restaurant,4.7,8,1,1,1,0,FL,Miami
Delicias Pizzeria Cubana,"Delicias Pizzeria Cubana, 11400 W Flagler St #105, Miami, FL 33174",0x88d9bf27397b0b9f:0xa5cd8736afce02,25.767896,-80.3816633,"Pizza restaurant, Delivery Restaurant",4.7,87,1,1,1,0,FL,Miami
Diced,"Diced, 10600 SW 8th St, Miami, FL 33174",0x88d9bf2ce954968f:0x13b4b92dbd6184f4,25.7609349,-80.3675614,Restaurant,4.8,24,1,1,1,0,FL,Miami
Yatai Street Food,"Yatai Street Food, 5026 NE 2nd Ave Suite 308, Miami, FL 33137",0x88d9b14d93ee2129:0x6e0c9b4f7d3c1941,25.8217522,-80.1921488,Restaurant,4.8,18,1,1,1,0,FL,Miami
Karne Asada Latin Grill,"Karne Asada Latin Grill, 13726 SW 84th St, Miami, FL 33183",0x88d9c1f416685d25:0x7f1066873d575e39,25.6876024,-80.4167693,"Restaurant, Breakfast restaurant, Fast food restaurant, Steak house",4.8,36,1,1,1,0,FL,Miami
EL CAMION DEL TACO,"EL CAMION DEL TACO, 9201 SW 40th St, Miami, FL 33165",0x88d9b9fb6d87fa3b:0xd05178552e34d91,25.733095799999997,-80.34400099999999,Mexican restaurant,4.9,98,1,1,1,0,FL,Miami
Costumbres Argentinas,"Costumbres Argentinas, 425 NE 22nd St, Miami, FL 33137",0x88d9b401fd50aba9:0xf22ea8c0ed9f73ee,25.79836,-80.187484,"Restaurant, Bakery, Cafe",5.0,8,0,1,1,0,FL,Miami
Camel Hump Restaurant,"Camel Hump Restaurant, 48 E Flagler St Suite M43, Miami, FL 33131",0x88d9b749aab2e405:0x824fbb3ed91a6340,25.7738025,-80.1923449,Restaurant,5.0,2,1,1,1,0,FL,Miami
Ted’s Burgers,"Ted’s Burgers, 120 NW 24th St, Miami, FL 33127",0x88d9b7ed13e4d491:0x866ab957991ee48c,25.799585699999998,-80.1974881,Fast food restaurant,5.0,2,1,1,0,0,FL,Miami
CALI SABOR,"CALI SABOR, 12540 SW 8th St, Miami, FL 33184",0x88d9bf220bc12713:0x1033a4c3aed88164,25.7601145,-80.3995822,Fast food restaurant,5.0,3,1,1,1,0,FL,Miami
Ozzi Sushi Bar,"Ozzi Sushi Bar, 200 SE 1st St, Miami, FL 33131",0x88d9b69dc966ff7b:0x8fdbf89a7700790a,25.773211399999997,-80.1900539,"Sushi restaurant, Asian restaurant, Japanese restaurant",5.0,4,1,1,1,0,FL,Miami
Domino's Pizza,"Domino's Pizza, 5769 NW 7th St Ste 22, Miami, FL 33126",0x88d9b9847fc1d547:0xa69a99b892a3615d,25.7787597,-80.2903393,"Pizza delivery, Delivery Restaurant, Takeout Restaurant, Pizza restaurant, Pizza Takeout",2.4,27,0,0,0,0,FL,Miami
The Produce Connection,"The Produce Connection, 2200 NW 23rd St, Miami, FL 33142",0x88d9b729d57eb3cd:0xc7ed59e9a4cff5fb,25.797904,-80.232051,"Produce wholesaler, Restaurant supply store, Wholesale grocer",3.3,3,0,0,0,0,FL,Miami
Natural Chicken Grill,"Natural Chicken Grill, 1675 SW 107th Ave, Miami, FL 33165",0x88d9bf33101d0d41:0xec87636ffde9ea09,25.7526811,-80.36712539999999,Chicken restaurant,3.4,36,0,0,0,0,FL,Miami
Taco Rico,"Taco Rico, 426 SW 8th St #8, Miami, FL 33130",0x88d9b7bd988041b7:0xac70bce59c3594eb,25.7658032,-80.2012364,Mexican restaurant,3.6,18,1,1,0,0,FL,Miami
Taco Bell,"Taco Bell, International Airport, Miami, FL 33126",0x88d9b9e2e5d1329d:0x614e7fdf2452832,25.796133899999997,-80.2789671,Restaurant,3.7,16,0,0,0,0,FL,Miami
Smoothie Spot Crossings,"Smoothie Spot Crossings, 12932 SW 120th St, Miami, FL 33186",0x88d9c11468c70a01:0x9e9f760bc89e769d,25.6562844,-80.4052002,Health food restaurant,3.7,28,1,1,0,0,FL,Miami
Karol's Cafeteria,"Karol's Cafeteria, 11640 Quail Roost Dr, Miami, FL 33157",0x88d9c39aed581b17:0x8f69663719c5297e,25.5902551,-80.3799138,Cuban restaurant,3.8,8,0,0,0,0,FL,Miami
Arena's Burger Bar,"Arena's Burger Bar, 900 Biscayne Blvd Suite R101B, Miami, FL 33132",0x88d9b6a0fee2f1dd:0x9028448132310436,25.783089,-80.190133,"Sports bar, Bar & grill, Breakfast restaurant, Cafe, Cafeteria, Lunch restaurant, Restaurant",3.9,8,0,0,0,0,FL,Miami
Maria's Cafeteria Inc,"Maria's Cafeteria Inc, 3082 NW 7th St, Miami, FL 33125",0x88d9b7172780173b:0xe664c0bf2caec044,25.7791215,-80.24610659999999,Cuban restaurant,3.9,27,1,1,0,0,FL,Miami
Cake Thai,"Cake Thai, 180 NW 29th St, Miami, FL 33127",0x88d9b6b2a9737f75:0x822a42cfd1687e61,25.8036602,-80.19886509999999,Thai restaurant,3.9,53,0,0,0,0,FL,Miami
El Colon Cafetería,"El Colon Cafetería, 312 SW 12th Ave, Miami, FL 33130",0x88d9b755c3b752b1:0x9ab3b44d0f1d9101,25.770305999999998,-80.214969,Restaurant,4.0,2,0,1,0,0,FL,Miami
Tippy's Restaurant,"Tippy's Restaurant, 11301 NW 27th Ave, Miami, FL 33167",0x88d9b105bd01d365:0x3914cf620ebce8a6,25.8777157,-80.2425121,Soul food restaurant,4.0,18,1,1,0,0,FL,Miami
Myumi,"Myumi, 56 NW 29th St, Miami, FL 33127",0x88d9b6ad82193f69:0xce6af5b597d9b9a,25.8035399,-80.1963315,Sushi restaurant,4.0,18,0,0,0,0,FL,Miami
El Crucero Restaurant,"El Crucero Restaurant, 7050 SW 8th St, Miami, FL 33144",0x88d9b84d7abc8dbd:0x4be92dcfaa4c17a6,25.7627366,-80.3094806,Cuban restaurant,4.1,36,1,1,0,0,FL,Miami
Grandview Chinese Takeout,"Grandview Chinese Takeout, 9842 SW 40th St #3912, Miami, FL 33165",0x88d9b8afff73ea4d:0x52e2f318d726edbf,25.732174099999998,-80.3546606,"Chinese restaurant, Asian restaurant",4.2,58,0,0,0,0,FL,Miami
El Bodegon Dominicano Miami,"El Bodegon Dominicano Miami, 3615 NW 17th Ave, Miami, FL 33142",0x88d9b12ce20e0b11:0x4b541e8294e93f3f,25.8098828,-80.2237991,"Grocery store, Dominican restaurant, Supermarket",4.2,48,1,0,0,0,FL,Miami
Blue boy pizza,"Blue boy pizza, 2809 SW 32nd Ave, Miami, FL 33133",0x88d9b7c963db437d:0x24a1d79e38f2243d,25.7374285,-80.2458819,Restaurant,4.3,8,1,1,0,0,FL,Miami
Napoli's Bakery,"Napoli's Bakery, 13375 SW 42nd St, Miami, FL 33175",0x88d9bff6b2aa9fef:0xa8a66dce1a2663f5,25.7297907,-80.4110281,Restaurant,4.3,8,1,1,0,0,FL,Miami
El Rancho de los Frijoles Krome,"El Rancho de los Frijoles Krome, 17000 SW 177th Ave, Miami, FL 33187",0x88d9e925ff7ef49b:0x10db1384189d3d29,25.607474999999997,-80.4795074,Colombian restaurant,4.3,35,1,1,0,0,FL,Miami
Rinconcito SuperLatinos Cafe,"Rinconcito SuperLatinos Cafe, 11368 SW 184th St, Miami, FL 33157",0x88d9c3579b91e559:0x7434e71b8bd03e17,25.597109999999997,-80.376803,Cuban restaurant,4.4,35,1,1,0,0,FL,Miami
Tacos el PEPE,"Tacos el PEPE, 9674 NW 10th Ave lot C320, Miami, FL 33150",0x88d9b11e46d4743d:0xc70b125a4dd5039a,25.863913999999998,-80.2139193,Taco restaurant,4.4,5,0,1,0,0,FL,Miami
Favas Pizza,"Favas Pizza, 267 E Flagler St, Miami, FL 33131",0x88d9b71c0dd17cf7:0x35bb43f28d7ab85f,25.7747928,-80.1890001,Pizza restaurant,4.5,38,0,0,0,0,FL,Miami
Eparepa Kendall,"Eparepa Kendall, 13742 SW 56th St, Miami, FL 33175",0x88d9c192c97f1d0f:0x90ec2bab92833b3c,25.7135903,-80.4171662,Venezuelan restaurant,4.7,28,1,1,0,0,FL,Miami
The Sushi Bar Japanese Cafe,"The Sushi Bar Japanese Cafe, 8748 Sunset Dr, Miami, FL 33173",0x88d9c76e78b3895d:0x4be6c9c1d738736f,25.700965099999998,-80.33541489999999,"Japanese restaurant, Sushi restaurant",4.7,85,1,1,0,0,FL,Miami
147 farmers Market,"147 farmers Market, 20200 SW 147th Ave, Miami, FL 33187",0x88d9c35c17198e61:0x82d13410640779d2,25.5781854,-80.4298835,"Farmers' market, Family restaurant, Takeout Restaurant, Peruvian restaurant, Produce market",4.8,24,1,0,0,0,FL,Miami
Pasteles Edward Miami,"Pasteles Edward Miami, 7299 NW 36th St, Miami, FL 33166",0x88d9b93a98bcc49f:0x7c15231e34ba37b4,25.8105254,-80.3156539,"Restaurant, Coffee shop",4.8,38,1,1,0,0,FL,Miami
China Ocean Chinese Restaurant,"China Ocean Chinese Restaurant, 15098 SW 56th St, Miami, FL 33185",0x88d9c1fea866a531:0xa1b7a01c96d54df9,25.7130847,-80.4379621,Restaurant,4.8,16,1,1,0,0,FL,Miami
Meson Milman Cafe,"Meson Milman Cafe, 353 SE 2nd St, Miami, FL 33131",0x88d9b69d933b71b5:0x16dd9fdcbc6424cb,25.7727351,-80.1885712,"Colombian restaurant, Restaurant",4.8,4,0,0,0,0,FL,Miami
Ceviche Del Cielo,"Ceviche Del Cielo, 14784 SW 56th St, Miami, FL 33185",0x88d9c012b1daf469:0xa1653aca295755ed,25.7130977,-80.4332474,Peruvian restaurant,4.8,18,1,0,0,1,FL,Miami
Shawarma miami,"Shawarma miami, 9165 SW 162nd Ave suite 100, Miami, FL 33196",0x88d9eb6f9c1dd6d7:0x8f90fd12b1135a75,25.681776,-80.45579339999999,Restaurant,4.8,18,1,1,0,0,FL,Miami
Señor Pan Café Flagler,"Señor Pan Café Flagler, 10071 W Flagler St Suite C110, Miami, FL 33174",0x88d9b9767b999f07:0xb1910498f055ffb8,25.769309399999997,-80.3586004,Cuban restaurant,4.8,26,1,1,0,0,FL,Miami
Latin N Soul,"Latin N Soul, 10921 SW 186th St, Miami, FL 33157",0x88d9c3890256c0c7:0xb95d7293e7f6f7df,25.596138399999997,-80.369236,Soul food restaurant,4.9,8,0,0,0,0,FL,Miami
SELINA BRAWLERS,"SELINA BRAWLERS, 2819 NW 2nd Ave, Miami, FL 33127",0x88d9b762ec735011:0xaf91bd91b0ef6afd,25.803463599999997,-80.1989941,"Coffee shop, Boutique, Breakfast restaurant, Clothing store, Furniture store, Lunch restaurant, Tea house, Vintage clothing store",4.9,35,0,0,0,0,FL,Miami
The Kitchen,"The Kitchen, 387 NE 167th St, Miami, FL 33162",0x88d9ae76cf1e8135:0x4b5fd350297ec22f,25.9287438,-80.192551,Health food restaurant,5.0,1,1,1,0,0,FL,Miami
El Patio De Mexico,"El Patio De Mexico, 3527 NE 2nd Ave, Miami, FL 33137",0x88d9b15682818e13:0x522455ff1539b5f6,25.8096179,-80.1908387,Mexican restaurant,5.0,1,1,0,0,0,FL,Miami
El King Taqueria Food Truck,"El King Taqueria Food Truck, 2990 NW 27th Ave, Miami, FL 33142",0x88d9b7d512cac45d:0x69183932fff850bf,25.8033254,-80.24028679999999,Mexican restaurant,5.0,4,0,1,0,0,FL,Miami
Corner Subs Miami,"Corner Subs Miami, 12932 SW 120th St, Miami, FL 33186",0x88d9c12d9a0c13c3:0xc7f9c8cbc7a112eb,25.6562844,-80.4052002,Fast food restaurant,5.0,7,1,0,0,0,FL,Miami
Mind2Body Inc,"Mind2Body Inc, 14289 SW 94th Cir Ln, Miami, FL 33186",0x88d9c171cf49b37b:0xa1c1a07922ac3634,25.6795738,-80.4213951,"Delivery Restaurant, Coaching center, Fitness center, Wellness program",5.0,28,0,0,0,0,FL,Miami
Tu Comelona,"Tu Comelona, 5731 NW 74th Ave, Miami, FL 33166",0x88d9b8903df09f97:0x2b260de93fe2d6b8,25.8257262,-80.3173936,Fast food restaurant,5.0,38,0,0,0,0,FL,Miami
Thea's,"Thea's, 1951 NW 7th Ave, Miami, FL 33136",0x88d9b6b76e1ab47f:0x63054df52ccd29bc,25.7946782,-80.2063924,Restaurant,5.0,18,0,0,0,0,FL,Miami
Jerico Food Service Equipment and Supply,"Jerico Food Service Equipment and Supply, 3624 NW 59th St, Miami, FL 33142",0x88d9b0bf0e37d4ed:0xe9be1853cb8865e4,25.8278966,-80.2566066,"Restaurant supply store, Kitchen supply store",5.0,5,1,0,0,0,FL,Miami
Olive Garden,"Olive Garden, 12976 NW 9th St, Miami, FL 33182",0x88d9bef9376f81ff:0xaf8a8572bc90b278,25.7778833,-80.4064501,Restaurant,1.0,1,0,1,1,0,FL,Miami
Home by Gigi,"Home by Gigi, 3413 Main Hwy, Miami, FL 33133",0x88d9b79e98450743:0x6a069ae8e9cc65de,25.727588299999997,-80.2425035,Restaurant,1.0,1,1,1,1,0,FL,Miami
Burger King,"Burger King, 11200 SW 8th St, Miami, FL 33199",0x88d9bf2d1b8eb2d7:0x2a4c178908a06b67,25.756428999999997,-80.37265049999999,Fast food restaurant,3.0,25,1,0,1,0,FL,Miami
Macumba Night Club,"Macumba Night Club, 7335 NW 36th St, Miami, FL 33166",0x88d9b9872b462313:0xf5b2de17c60701ee,25.810349,-80.3157317,"Night club, Bar, European restaurant, Event venue, Party planner, Spanish restaurant",3.8,8,0,0,1,0,FL,Miami
Guembos Cafe Restaurant,"Guembos Cafe Restaurant, 2055 NW 22nd Ave, Miami, FL 33142",0x88d9b6d7f1051eb7:0x9a69264c0f51b73,25.795373899999998,-80.2313156,Honduran restaurant,3.8,58,1,1,1,0,FL,Miami
Granny Feelgood Restaurant & Market,"Granny Feelgood Restaurant & Market, 25 W Flagler St # 100, Miami, FL 33130",0x88d9b69be71394cb:0x2fac5a4d4819d37e,25.7744358,-80.1943292,"Restaurant, Sandwich shop",3.9,14,0,1,1,0,FL,Miami
sweetgreen,"sweetgreen, 2621 NW 2nd Ave, Miami, FL 33127",0x88d9b782fa6a1fdd:0xfa64d719d41987b6,25.8015424,-80.19880619999999,"Health food restaurant, Delivery service, Takeout Restaurant, Restaurant, Salad shop, Vegan restaurant, Vegetarian restaurant",3.9,8,1,1,1,0,FL,Miami
ms.benedict,"ms.benedict, 3301 NE 1st Ave suite #101, Miami, FL 33137",0x88d9b11d2931a277:0x3fd9c10c9b21fabf,25.8079489,-80.1926915,Restaurant,3.9,18,1,0,1,0,FL,Miami
Bistro Urbano Restaurant & Bar,"Bistro Urbano Restaurant & Bar, 2500 Brickell Ave 1st floor, Miami, FL 33129",0x88d9b664119a68b7:0xf9b848166bcd0bdc,25.7510883,-80.2036681,"Bar, American restaurant, Breakfast restaurant, Cocktail bar, Latin American restaurant, Restaurant, Wine bar",4.0,3,1,1,1,0,FL,Miami
Canton Star,"Canton Star, 15718 SW 72nd St, Miami, FL 33193",0x88d9c0239a78950b:0xc7cf49b111cd835d,25.697427599999997,-80.4473835,Chinese restaurant,4.0,98,1,1,1,0,FL,Miami
Rinconcito Paisa,"Rinconcito Paisa, 7221 SW 152nd Ave, Miami, FL 33193",0x88d9c03c1d1497b1:0x69bcecb23ef96bd3,25.697830399999997,-80.4381179,Restaurant,4.1,34,1,1,1,0,FL,Miami
Carrot Express Downtown,"Carrot Express Downtown, 98 NE 2nd Ave, Miami, FL 33132",0x88d9b764c37eb207:0xaa3d9825e4a97606,25.775038199999997,-80.19047719999999,Health food restaurant,4.1,58,1,1,1,0,FL,Miami
Churromania® The Falls Mall,"Churromania® The Falls Mall, 8888 SW 136th St, Miami, FL 33176",0x88d9c69405a9b775:0x31d44033c580e131,25.644558,-80.3387245,"Fast food restaurant, Brunch restaurant, Dessert restaurant",4.1,68,1,1,1,0,FL,Miami
Al toque peruvian cuisine by Roberto Area,"Al toque peruvian cuisine by Roberto Area, 625 NE 79th St, Miami, FL 33138",0x88d9b3dcd0b98921:0xe58bcd33af287089,25.8481903,-80.1840347,Restaurant,4.1,18,1,1,1,0,FL,Miami
Joe´s Place,"Joe´s Place, 2491 NW 72nd Ave, Miami, FL 33122",0x88d9b93bcec452d9:0xbe21212a31e41cf3,25.7968491,-80.31269809999999,Cuban restaurant,4.2,15,1,1,1,0,FL,Miami
Cafeteria Olanchana,"Cafeteria Olanchana, 3417 NW 32nd Ave, Miami, FL 33142",0x88d9b7334dcbffff:0xf8e75ddf0cef7b62,25.8073205,-80.2480102,Honduran restaurant,4.3,26,1,1,1,0,FL,Miami
El Mayoral Sunset Dr,"El Mayoral Sunset Dr, 15148 SW 72nd St, Miami, FL 33193",0x88d9c1b7501c390d:0x310a092f4c30cf2,25.6991256,-80.437517,Colombian restaurant,4.3,48,1,1,1,0,FL,Miami
Tacos,"Tacos, 14695 SW 216th St, Miami, FL 33170",0x88d9c2eb95e33af3:0xd4246c8deef40719,25.5661685,-80.4290228,Taco restaurant,4.4,7,0,1,1,0,FL,Miami
Smoothie King,"Smoothie King, 14200 SW 8th St Unit 102, Miami, FL 33184",0x88d9bfba737879e3:0x1aee6a9f95ed7b49,25.760559999999998,-80.42536,"Juice shop, Fast food restaurant, Health food restaurant, Delivery Restaurant, Takeout Restaurant, Vitamin & supplements store",4.4,38,1,1,1,0,FL,Miami
Uber Wings,"Uber Wings, 5891 NW 36th St, Miami, FL 33166",0x88d9c4193eb83335:0x8bf157dee51d1137,25.807902199999997,-80.29291889999999,"Health food restaurant, Chicken wings restaurant, Vegan restaurant",4.5,135,1,1,1,0,FL,Miami
Arepas Y Mucho Mas,"Arepas Y Mucho Mas, 14431 Country Walk Dr, Miami, FL 33186",0x88d9c2272a18a961:0x77cb745e8336c0d4,25.630238799999997,-80.4269104,"Colombian restaurant, Restaurant",4.5,118,1,1,1,0,FL,Miami
Subway,"Subway, 11865 SW 26th St Unit J8, Miami, FL 33175",0x88d9bf1ec0800db9:0x80708a99a8c6ee72,25.747895999999997,-80.3862666,"Sandwich shop, Caterer, Fast food restaurant, Takeout Restaurant, Restaurant",4.5,38,1,1,1,0,FL,Miami
Comida De Mar,"Comida De Mar, 1700 NW 32nd St, Miami, FL 33142",0x88d9b6d32bac6607:0x3889d32c8c633bae,25.8057548,-80.2239848,Restaurant,4.5,25,1,1,1,0,FL,Miami
Arepa Santa Barbara,"Arepa Santa Barbara, 14955 SW 186th St, Miami, FL 33187",0x88d9c3ddc3272acb:0x979c5255cfb131e9,25.594450199999997,-80.43493389999999,"Latin American restaurant, Family restaurant, Organic restaurant, Taco restaurant, Vegan restaurant, Vegetarian restaurant, Venezuelan restaurant",4.5,24,1,1,1,0,FL,Miami
Los Amigos Cafe,"Los Amigos Cafe, 7105 SW 47th St STE 401, Miami, FL 33155",0x88d9b870621752ef:0xf7bf1f77dd9724f7,25.7266479,-80.30904369999999,Cuban restaurant,4.5,38,1,1,1,0,FL,Miami
Antica Pizzeria del Luna Park,"Antica Pizzeria del Luna Park, 601 S Miami Ave, Miami, FL 33131",0x88d9b684a82e2877:0x51f550007fd7de58,25.768196999999997,-80.193129,Restaurant,4.6,26,1,1,1,0,FL,Miami
TASTY FLAVOR,"TASTY FLAVOR, 195 NE 36th St, Miami, FL 33137",0x88d9b122677f8d71:0x6dd130bdac92e983,25.810776999999998,-80.1914013,Venezuelan restaurant,4.6,8,1,1,1,0,FL,Miami
Panarea Mediterranean Sea Grill,"Panarea Mediterranean Sea Grill, 11052 Biscayne Blvd, Miami, FL 33161",0x88d9b2146f62885b:0x5cc9cd48586b0286,25.877384,-80.1686766,"Mediterranean restaurant, Italian restaurant, Pizza restaurant, Seafood restaurant",4.6,33,1,0,1,0,FL,Miami
The Chocolate Chip Bakery,"The Chocolate Chip Bakery, 166 NE 29th St, Miami, FL 33137",0x88d9b149937e65cb:0x382fb2a195b29f59,25.8039207,-80.191951,"Vegan restaurant, Bakery, Breakfast restaurant, Coffee shop, Dessert shop, Gluten-free restaurant, Hamburger restaurant",4.6,25,1,1,1,0,FL,Miami
One Thousand Cafe,"One Thousand Cafe, 1000 Brickell Ave # 139, Miami, FL 33131",0x88d9b683c74ec5a5:0x2d5592f96be94d6,25.7639791,-80.1917842,Restaurant,4.6,16,1,1,1,0,FL,Miami
Juicy Burgers,"Juicy Burgers, 9135 SW 162nd Ave #104, Miami, FL 33196",0x88d9ebde489300e9:0xa7c247cf841a5abe,25.6821195,-80.45544579999999,Restaurant,4.6,36,1,1,1,0,FL,Miami
Peruvian Fusion Cuisine,"Peruvian Fusion Cuisine, 27 N Miami Ave, Miami, FL 33128",0x88d9b699560d6c95:0x74b0e16609faf1a9,25.774721399999997,-80.1934838,"Restaurant, Bar & grill, Breakfast restaurant, Chicken restaurant, Cocktail bar, Coffee shop, Lunch restaurant, Peruvian restaurant, Sushi restaurant, Wine bar",4.6,78,1,1,1,0,FL,Miami
Sabor Cubano Cafeteria,"Sabor Cubano Cafeteria, 12848 SW 8th St, Miami, FL 33184",0x88d9bf05ea02e883:0xc0972f0de636a891,25.7603814,-80.4050634,Cuban restaurant,4.7,17,1,1,1,0,FL,Miami
Pescados Y Mariscos,"Pescados Y Mariscos, 5721 W Flagler St, Miami, FL 33144",0x88d9b9ce3cd27863:0x26d78e1795682049,25.770911299999998,-80.28846349999999,Seafood restaurant,4.7,13,1,1,1,0,FL,Miami
Jimmy John's,"Jimmy John's, 2770 SW 27th Ave, Miami, FL 33133",0x88d9b7b69c5aa65f:0xd39124ed28442ec4,25.740841699999997,-80.2381861,"Sandwich shop, Caterer, Delivery Restaurant, Restaurant",4.7,16,1,1,1,0,FL,Miami
Cuisine Lakay and Bar,"Cuisine Lakay and Bar, 6010 NE 2nd Ave, Miami, FL 33137",0x88d9b1f2c5bb1c39:0xd7e806d826184dea,25.8311863,-80.1923231,Haitian restaurant,4.7,16,1,1,1,0,FL,Miami
Fonda Cafe by Bunbury,"Fonda Cafe by Bunbury, 1410 NE Miami Pl, Miami, FL 33132",0x88d9b7f257b23cd3:0x702ad63ff3f38834,25.7884471,-80.1932282,Restaurant,4.7,26,1,1,1,0,FL,Miami
Tacos & Tattoos Lincolns Beard,"Tacos & Tattoos Lincolns Beard, 7360 SW 41st St, Miami, FL 33155",0x88d9b98697f750e3:0x68c9000bacc07993,25.732103499999997,-80.31432509999999,Mexican restaurant,4.7,17,1,1,1,0,FL,Miami
Mr Baguette - Wynwood,"Mr Baguette - Wynwood, 2601 N Miami Ave, Miami, FL 33137",0x88d9b704ace5ad6f:0x3b8c8acb90b965d9,25.8017248,-80.194924,Restaurant,4.7,88,1,1,1,0,FL,Miami
Brazuca's Grill,"Brazuca's Grill, 10808 NW 58th St, Miami, FL 33178",0x88d9beaa69fe403b:0x6f65f9ab14013398,25.825215,-80.37201,Restaurant,4.8,4,0,1,1,0,FL,Miami
Minty Z,"Minty Z, 3206 Grand Ave, Miami, FL 33133",0x88d9b7619efe5b07:0x612bda4f0ce64707,25.7277584,-80.2454521,"Vegan restaurant, Asian fusion restaurant, Brunch restaurant, Chinese restaurant, Dim sum restaurant, Small plates restaurant, Tapas restaurant",4.8,148,1,1,1,0,FL,Miami
Estación Central - Central Station,"Estación Central - Central Station, 121 SE 1st St, Miami, FL 33131",0x88d9b7e8a33af5a7:0xbdeb5c3f893af29c,25.773474999999998,-80.191403,"Restaurant, Cocktail bar, Family restaurant, Lunch restaurant, Mediterranean restaurant, Seafood restaurant, Spanish restaurant, Tapas restaurant, Wine bar",4.8,14,1,0,1,0,FL,Miami
THE RITERO BURGER 🍔,"THE RITERO BURGER 🍔, 5711 NW 74Th Avenue - parking Doral, Miami, FL 33166",0x88d9bbd46967c767:0xaeb12bfb7c71826d,25.8255832,-80.3175062,Restaurant,4.8,76,1,1,1,0,FL,Miami
Punch Bowl Social Miami -- CLOSED,"Punch Bowl Social Miami -- CLOSED, 2660 NW 3rd Ave, Miami, FL 33127",0x88d9b6b2fe86aaab:0x4817fbd743c7fcb0,25.8018765,-80.2012582,Restaurant,4.9,17,1,0,1,0,FL,Miami
The Chosen burger,"The Chosen burger, 8857 SW 172nd Ave, Miami, FL 33196",0x88d9ebb35e029241:0x5d7e12e50ba392,25.6849731,-80.4725589,Vegan restaurant,4.9,76,1,1,1,0,FL,Miami
El Rinconcito Latino Calle Ocho,"El Rinconcito Latino Calle Ocho, 8488 SW 8th St, Miami, FL 33144",0x88d9b999be9e0b7d:0xf46e234c14b02064,25.7611012,-80.3334998,Restaurant,4.9,13,1,1,1,0,FL,Miami
Meat and Bread,"Meat and Bread, 10674 SW 24th St, Miami, FL 33165",0x88d9bf356a8d5d57:0x791dfe3e97761d86,25.7462439,-80.3668539,"Venezuelan restaurant, Latin American restaurant, Delivery Restaurant",5.0,8,0,1,1,0,FL,Miami
Pesto Cafe and Grill,"Pesto Cafe and Grill, 16323 SW 88th St, Miami, FL 33196",0x88d9eb7de6a30c55:0x4e08706be2ce51ee,25.6850526,-80.4564733,"Restaurant, Breakfast restaurant, Lunch restaurant, Mediterranean restaurant",5.0,35,1,1,1,0,FL,Miami
Tortellino,"Tortellino, 8100 SW 104th St, Miami, FL 33156",0x88d9c7286820f479:0xb5ace0c9e8c1a88e,25.673301199999997,-80.3258803,Italian restaurant,5.0,47,1,1,1,0,FL,Miami
OCEAN CAFE,"OCEAN CAFE, 782 NW 42nd Ave, Miami, FL 33126",0x88d9b76f56c9ab79:0xf45002a426ed0a5f,25.778864799999997,-80.265547,Restaurant,5.0,7,1,1,1,0,FL,Miami
"Rokascudo ""El Principe""","Rokascudo ""El Principe"", 5731 NW 74th Ave, Miami, FL 33166",0x88d9bb5955074143:0x4b9c554dafee919b,25.8257262,-80.3173936,Restaurant,5.0,37,1,1,1,0,FL,Miami
Alidoro,"Alidoro, 2319 N Miami Ave, Miami, FL 33127",0x88d9b74afb5d9581:0xa7adfd9d45814eb7,25.799270999999997,-80.194605,"Sandwich shop, Italian restaurant",1.0,1,0,0,0,0,FL,Miami
Subway Restaurants,"Subway Restaurants, NW 54th St, Miami, FL 33127",0x88d9b15d0e3ce6dd:0x8d86dc77a8b2eff,25.825770199999997,-80.196769,"Sandwich shop, Caterer, Fast food restaurant, Hoagie restaurant, Restaurant",3.0,48,0,0,0,0,FL,Miami
China Gate Restaurant,"China Gate Restaurant, 19349 S Dixie Hwy, Miami, FL 33157",0x88d9c4795fe32bf7:0x158dd1ffa0a56579,25.5877469,-80.3598076,"Chinese restaurant, Restaurant",3.6,26,0,0,0,0,FL,Miami
Bice Bistro,"Bice Bistro, 3015 Grand Ave #120, Miami, FL 33133",0x88d9b7cf7625235f:0x70c59ffec9bf1b07,25.728745999999997,-80.242166,Italian restaurant,3.6,44,0,0,0,1,FL,Miami
Tobacco Road,"Tobacco Road, 69 SW 7th St, Miami, FL 33130",0x88d9b684a4212f31:0x1a4b3258174d0f98,25.767467,-80.1947422,"American restaurant, Bar & grill, Live music venue",3.8,48,0,1,1,0,FL,Miami
Froots Kendall,"Froots Kendall, 13909 SW 88th St, Miami, FL 33186",0x88d9c051c03d684d:0xd7a0a4c1a074d5b5,25.6859157,-80.4202746,Health food restaurant,3.8,36,0,0,0,0,FL,Miami
Pepito's,"Pepito's, 6901 Coral Way, Miami, FL 33155",0x88d9b84460500d1d:0x87c00d45157af2ae,25.7485194,-80.3072344,"Hamburger restaurant, American restaurant, Fast food restaurant",3.9,15,0,0,0,0,FL,Miami
Burgerim,"Burgerim, 7032 Coral Way, Miami, FL 33155",0x88d9b84367b123bb:0xa1651d64d4093e75,25.7465573,-80.3098558,Hamburger restaurant,4.0,8,0,0,0,0,FL,Miami
Casa Vieja 2,"Casa Vieja 2, 22390 SW 177th Ave, Miami, FL 33170",0x88d9e86cbc2cea31:0xf5854770e1ae355c,25.558135999999998,-80.4785579,Health food restaurant,4.0,2,0,1,0,0,FL,Miami
Los Arrieros Restaurant,"Los Arrieros Restaurant, 3398 Coral Way, Miami, FL 33145",0x88d9b7a35a82179f:0x2081456002131bb0,25.749885199999998,-80.2494071,Colombian restaurant,4.1,18,0,0,0,0,FL,Miami
Subway,"Subway, 21627 S Dixie Hwy, Miami, FL 33170",0x88d9c36ebb30c37d:0x97527895f7c6cec9,25.5653892,-80.3818545,"Sandwich shop, Caterer, Fast food restaurant, Takeout Restaurant, Restaurant",4.1,28,0,0,0,0,FL,Miami
La Pulperia Nicaraguan Store & Cafe,"La Pulperia Nicaraguan Store & Cafe, 10780 W Flagler St #18, Miami, FL 33174",0x88d9bf2a1080be5d:0xd7f1a898c39763f,25.767959299999998,-80.3706497,"Nicaraguan restaurant, Cafe",4.2,8,0,1,0,0,FL,Miami
Kiji Cuzco,"Kiji Cuzco, 2451 NW 5 Ave, Miami, FL 33127",0x88d9b6b3be05f477:0x2a08071dee00075d,25.800487399999998,-80.2027234,"Japanese restaurant, Restaurant",4.2,44,0,0,0,0,FL,Miami
El Oasis Restaurant,"El Oasis Restaurant, 30 NE 3rd Ave, Miami, FL 33132",0x88d9b69e0ccaf389:0x36e2027f712d1dd4,25.7748106,-80.1888918,Restaurant,4.3,6,0,1,1,0,FL,Miami
180 Degrees At the DRB,"180 Degrees At the DRB, 501 NE 1st Ave, Miami, FL 33132",0x88d9b69f416ebac7:0xdfd86e3a6becd0e,25.7792225,-80.1918216,"Gastropub, New American restaurant",4.4,58,0,0,0,0,FL,Miami
Casa Brasolin,"Casa Brasolin, 21 SE 2nd Ave, Miami, FL 33131",0x88d9b69dd1f59e77:0x2c86efe0244921a2,25.773806999999998,-80.189852,"Restaurant, Brazilian restaurant, Caterer, Event venue, Italian restaurant",4.4,14,0,0,1,1,FL,Miami
Cold Pressed Raw Kitchen,"Cold Pressed Raw Kitchen, 185 SE 13th St, Miami, FL 33131",0x88d9b6810bd226bf:0xc5f82c0eca77a820,25.7609688,-80.1904636,Restaurant,4.5,18,0,0,0,0,FL,Miami
Boho,"Boho, 3433 Main Hwy, Miami, FL 33133",0x88d9b7cf8f247d9b:0x21c1fc34ff432825,25.727303799999998,-80.2428563,"Mediterranean restaurant, Restaurant",4.5,88,0,0,0,0,FL,Miami
Dominican Chimi,"Dominican Chimi, 2595 NW 37th St, Miami, FL 33142",0x88d9b0d39c2e4681:0x4b49a51142a94e68,25.8105682,-80.2388405,Dominican restaurant,4.6,85,0,1,1,0,FL,Miami
Sake Room,"Sake Room, 1569 Sunset Dr, Miami, FL 33143",0x88d9c7e4d52e79f3:0xa1d21fc9d96e00f6,25.704646999999998,-80.284954,"Sushi restaurant, Restaurant",4.6,18,0,0,0,0,FL,Miami
El Taco Loco De 8,"El Taco Loco De 8, 440 SW 8th St, Miami, FL 33130",0x88d9b68efcf85bc9:0x686c833d94462ae0,25.765978399999998,-80.2016597,Restaurant,4.6,48,0,0,0,0,FL,Miami
Ventanas Restaurant Bar & Lounge,"Ventanas Restaurant Bar & Lounge, 3861 SW 40th St, Miami, FL 33146",0x88d9b7ebaa8a9035:0x5fc4a910fa28a892,25.735177399999998,-80.2575567,Bar & grill,4.8,4,0,0,0,0,FL,Miami
el tropezon limeño,"el tropezon limeño, 140 SW 57th Ave, Miami, FL 33155",0x88d9b96bcf6654f1:0xae8463bfedace868,25.7694556,-80.2882611,Peruvian restaurant,4.8,16,0,1,1,0,FL,Miami
KIMBOP,"KIMBOP, 14395 SW 139th Ct Unit 106, Miami, FL 33186",0x88d9c118d58d8bc7:0x3557014b1119adcf,25.6338138,-80.4193572,Korean restaurant,4.9,74,0,1,0,0,FL,Miami
Toscanino,"Toscanino, 163 SE 1st St, Miami, FL 33131",0x88d9b79debefcc41:0xa67edc4e8a03f15d,25.773584,-80.190465,Restaurant,4.9,8,0,0,0,0,FL,Miami
Amore Juice & Gelato,"Amore Juice & Gelato, 901 S Miami Ave, Miami, FL 33131",0x88d9b683861e41ab:0x3a6afa3815c869ab,25.765107999999998,-80.192788,"Dessert shop, Coffee shop, Health food restaurant, Health food store, Ice cream shop, Juice shop, Produce market, Raw food restaurant, Snack bar",4.9,18,0,0,0,0,FL,Miami
LNB GROVESTAND,"LNB GROVESTAND, 13591 SW 135th Ave Unit 101, Miami, FL 33186",0x88d9c15650ebb2db:0xaf46052e517c1dc0,25.6418459,-80.4122651,"Health food restaurant, Health food store",4.9,15,0,1,0,0,FL,Miami
Homyn Food Truck,"Homyn Food Truck, 4050 NW 29th St, Miami, FL 33142",0x88d9b7d9935c2de1:0xedbdec4b3e4dd82b,25.8019835,-80.262729,Restaurant,5.0,15,0,0,0,0,FL,Miami
Honestly Healthy,"Honestly Healthy, 685 NW 32nd St, Miami, FL 33127",0x88d9b1d738bed4b5:0x38160cf53dafd4ff,25.8065225,-80.2067769,Vegan restaurant,5.0,7,0,1,0,0,FL,Miami
Bad Hombres Mexican Restaurant,"Bad Hombres Mexican Restaurant, 860 NE 79th St B, Miami, FL 33138",0x88d9b3d2e37a15a7:0x4a2d8ce5177dcbd3,25.847737,-80.1788266,Mexican restaurant,5.0,4,0,0,0,0,FL,Miami
jacalito,"jacalito, 26 NW 26th Ave, Miami, FL 33125",0x88d9b71b43251dcd:0xb2130db7ac77c36d,25.7730775,-80.2388113,Restaurant,1.8,4,1,1,1,0,FL,Miami
Mario's Pizza Pasta,"Mario's Pizza Pasta, 1603 NE 123rd St, Miami, FL 33181",0x88d9b20ca5635365:0xda426a792a4528b2,25.8894499,-80.1659799,"Pizza restaurant, Takeout Restaurant, Pizza delivery",3.0,18,1,1,0,0,FL,Miami
Auntie Anne's,"Auntie Anne's, 20505 S Dixie Hwy, Miami, FL 33189",0x88d9c37ea9ff58d5:0x41e4f4f612ec5c44,25.574980399999998,-80.36963349999999,"Pretzel store, Bakery, Cafe, Restaurant",3.1,8,1,0,0,0,FL,Miami
Doggi's Wynwood,"Doggi's Wynwood, 2250 NW 2nd Ave, Miami, FL 33127",0x88d9b6b21d255555:0x747caf56e2cfe7a1,25.7987257,-80.19926009999999,"Venezuelan restaurant, Restaurant",3.1,14,1,1,1,0,FL,Miami
Koning Restaurants International,"Koning Restaurants International, 15065 S Dixie Hwy, Miami, FL 33176",0x88d9c69ee8bf9921:0x318bc81bfd785682,25.629693699999997,-80.3396439,Takeout Restaurant,3.4,7,1,1,0,0,FL,Miami
8 1/2 Caffè & Bottega,"8 1/2 Caffè & Bottega, 1717 N Bayshore Dr #109, Miami, FL 33132",0x88d9b41d53cbb1bb:0xb2b7d5b28a72d69e,25.791316,-80.1861552,Italian restaurant,3.4,28,1,1,1,0,FL,Miami
Honduras Nica Cafe,"Honduras Nica Cafe, 280 NW 79th St, Miami, FL 33150",0x88d9b176ea025e13:0x35d50186b9d6b2cc,25.8471431,-80.2023696,Honduran restaurant,3.5,84,1,1,1,0,FL,Miami
Latin Cafeteria Restaurant,"Latin Cafeteria Restaurant, 7360 SW 24th St, Miami, FL 33155",0x88d9b85bf37d8045:0xe8cd58f78bea5eda,25.747373999999997,-80.314529,"Cuban restaurant, Latin American restaurant, Delivery Restaurant, Takeout Restaurant",3.6,68,1,0,1,1,FL,Miami
Ocean Pizza & Juice,"Ocean Pizza & Juice, 30 SW 8th St, Miami, FL 33130",0x88d9b6848f6b2359:0x15b64adde3024c47,25.7660458,-80.1940012,Pizza restaurant,3.6,8,1,1,1,0,FL,Miami
Casa Larios,"Casa Larios, 7705 W Flagler St, Miami, FL 33144",0x88d9b9aa6b5ba121:0xb49714208a5ab10a,25.7703532,-80.3234432,"Cuban restaurant, Latin American restaurant, Restaurant",3.9,18,1,1,1,0,FL,Miami
Victor's Cuba Cafe,"Victor's Cuba Cafe, 11865 SW 26th St Suite E-1, Miami, FL 33175",0x88d9bf155eda500b:0xbf9ee018b2e5bb94,25.7476411,-80.3891821,Cuban restaurant,3.9,105,1,0,1,0,FL,Miami
Piazzolla Pizza,"Piazzolla Pizza, 12850 SW 120th St, Miami, FL 33186",0x88d9c10c83dfafbf:0xd28a8218e17d45d8,25.655740899999998,-80.40104819999999,"Pizza restaurant, Argentinian restaurant, Catering, Italian restaurant, Pasta shop",3.9,8,1,1,0,0,FL,Miami
Hy-Vong,"Hy-Vong, 3458 SW 8th St, Miami, FL 33135",0x88d9b70ba7eb4a63:0x7a24e25c92f369ed,25.7646056,-80.25147539999999,"Vietnamese restaurant, Caterer",4.0,18,1,1,1,0,FL,Miami
Taco Bus,"Taco Bus, 1665 SW 107th Ave, Miami, FL 33165",0x88d9bf3312a8e081:0x503c4c25ab3e0224,25.7527199,-80.3669589,"Mexican restaurant, Restaurant",4.0,23,1,1,0,0,FL,Miami
Salvadoreño 4,"Salvadoreño 4, 1159 NW 22nd Ave, Miami, FL 33125",0x88d9b745047538a9:0xb240f24e6d3513dc,25.7836377,-80.2300679,Restaurant,4.0,2,1,1,0,0,FL,Miami
Mercadito Midtown,"Mercadito Midtown, 3252 NE 1st Ave, Miami, FL 33137",0x88d9b15387f0126d:0x3e1ffaddfdda0758,25.8070545,-80.19371989999999,"Mexican restaurant, Bar, Latin American restaurant",4.0,8,1,1,1,0,FL,Miami
The Fed Food & Drink,"The Fed Food & Drink, 5132 Biscayne Blvd, Miami, FL 33137",0x88d9b3e02fa17271:0xcc11b99ab69f4fe6,25.8235404,-80.1874374,"Mexican restaurant, Brunch restaurant, Gluten-free restaurant, Health food restaurant, New American restaurant, Tex-Mex restaurant, Vegan restaurant",4.0,38,1,1,1,0,FL,Miami
Pollo Graduado,"Pollo Graduado, 7415 NW 54th St, Miami, FL 33166",0x88d9bb1fe41a2fd1:0x8527291141a1604,25.822806999999997,-80.318551,Restaurant,4.1,47,1,1,1,0,FL,Miami
Mi Vida Cafe Vegetarian Cuisine,"Mi Vida Cafe Vegetarian Cuisine, 7244 Biscayne Blvd, Miami, FL 33138",0x88d9b3d6f9ef7ec5:0x95035faa8fc99d7a,25.8420074,-80.1845953,"Vegan restaurant, Health food restaurant, Organic restaurant, Raw food restaurant, Vegetarian restaurant",4.1,24,1,1,0,0,FL,Miami
Shell,"Shell, 11175 SW 40th St, Miami, FL 33165",0x88d9bf5040e96d9f:0xf82c39de16d669b4,25.7324904,-80.3754268,"Gas station, Alternative fuel station, ATM, Convenience store, Electric vehicle charging station, Restaurant",4.1,82,1,0,0,0,FL,Miami
Atlantic Coast Restaurant & Mechanical Services,"Atlantic Coast Restaurant & Mechanical Services, 7700 NW 37th Ave, Miami, FL 33147",0x88d9b08d8edb0b5d:0x8ab1b860f926ef3a,25.8443786,-80.2581268,"Fire protection service, HVAC contractor, Restaurant supply store",4.1,13,1,0,0,0,FL,Miami
Kelly's Cajun Grill,"Kelly's Cajun Grill, 401 Biscayne Blvd, Miami, FL 33132",0x88d9b42059fcb4cf:0xf44dc7514d8c0106,25.7773376,-80.185436,"Cajun restaurant, Restaurant",4.1,18,1,1,0,0,FL,Miami
Munchies Cafe,"Munchies Cafe, 12761 SW 42nd St, Miami, FL 33175",0x88d9bf7ca64a54d7:0x6c9733daaafbcbb5,25.7300224,-80.4012604,Cuban restaurant,4.1,18,1,1,1,0,FL,Miami
MYLO'S,"MYLO'S, 364 SE 1st St, Miami, FL 33131",0x88d9b79179cea867:0x339002e69771269d,25.773087099999998,-80.1881401,Cuban restaurant,4.2,38,1,0,1,1,FL,Miami
Subway,"Subway, 9300 S Dadeland Blvd Suite #110, Miami, FL 33156",0x88d9c7a6a9236f35:0x3513b4b0502fecc4,25.683798,-80.31649999999999,"Sandwich shop, Caterer, Fast food restaurant, Takeout Restaurant, Restaurant",4.2,26,1,1,1,0,FL,Miami
Fresh & Nice Caribbean Cuisine,"Fresh & Nice Caribbean Cuisine, 817 NW 54th St, Miami, FL 33127",0x88d9b1c925dd3feb:0xeef10944c8f4f210,25.8250921,-80.210737,Restaurant,4.2,35,1,1,1,0,FL,Miami
La Paris Cafe,"La Paris Cafe, 251 SE 1st St, Miami, FL 33131",0x88d9b69dc4c0fd2d:0x5262cdd4ac1ad1,25.7735707,-80.18931099999999,"Cuban restaurant, Delivery Restaurant",4.2,58,1,1,0,0,FL,Miami
Booklink and Cafe,"Booklink and Cafe, 2100 Northwest 42nd Avenue, Miami, FL 33126",0x88d9b75825eea55b:0xfb9ee283c77b0977,25.797266699999998,-80.27469719999999,"Book store, Restaurant",4.2,28,1,0,0,0,FL,Miami
Jin Jin,"Jin Jin, 15705 SW 56th St, Miami, FL 33185",0x88d9c01b62b5248d:0xbecefa9ebf743d9c,25.715019599999998,-80.4478875,"Chinese restaurant, Delivery Restaurant",4.2,78,1,1,0,0,FL,Miami
Hookah Lounge At Balans,"Hookah Lounge At Balans, 901 S Miami Ave Suit 109, Miami, FL 33130",0x88d9b683891e1a1b:0xa981e40719acbc08,25.7650032,-80.1937616,"Restaurant, Hookah bar, Lounge",4.3,77,1,1,1,0,FL,Miami
Laundry,"Laundry, 1044 W Flagler St, Miami, FL 33130",0x88d9b6ecff0105cf:0x347946bb16343f92,25.773280999999997,-80.21249379999999,Restaurant,4.3,53,1,0,0,0,FL,Miami
Choices Cafe,"Choices Cafe, 379 SW 15th Rd, Miami, FL 33129",0x88d9b688c5b8e745:0xd994db76bbd8e971,25.7626402,-80.2005049,"Organic restaurant, Juice shop, Restaurant, Vegan restaurant, Vegetarian restaurant",4.4,18,1,1,0,0,FL,Miami
Venezuelan House,"Venezuelan House, 14616 SW 8th St, Miami, FL 33184",0x88d9bf5760d90625:0xaa5d549db155bc0d,25.7594571,-80.431738,Restaurant,4.4,8,1,1,1,0,FL,Miami
Fuel Poke,"Fuel Poke, 2304 NE 2nd Ave, Miami, FL 33137",0x88d9b6abc8f33105:0x26a09caae072f3c3,25.799235499999998,-80.1910527,Hawaiian restaurant,4.4,66,1,0,1,0,FL,Miami
Brickel center,"Brickel center, 701 S Miami Ave, Miami, FL 33130",0x88d9b7dffc85e987:0x5ee77d77328104a3,25.7672556,-80.19302669999999,Restaurant,4.4,8,1,1,0,0,FL,Miami
OTC Restaurant Brickell,"OTC Restaurant Brickell, 1250 S Miami Ave, Miami, FL 33130",0x88d9b686b3ab9e77:0x521904e9e575adc7,25.762086699999998,-80.1933261,American restaurant,4.4,18,1,1,1,0,FL,Miami
LAREPERA,"LAREPERA, 412 NE 22nd St, Miami, FL 33137",0x88d9b402836542f5:0x6fc10adf40e8c6c7,25.7979453,-80.1877899,Venezuelan restaurant,4.4,8,1,1,1,0,FL,Miami
Kababji Grill Doral,"Kababji Grill Doral, 8325 NW 64th St, Miami, FL 33166",0x88d9bbc61d2ba8c1:0xc9bccdeedc8652ef,25.831809,-80.33236889999999,"Lebanese restaurant, Delivery Restaurant",4.5,8,1,1,1,0,FL,Miami
Fish Market & Restaurant,"Fish Market & Restaurant, 2238 SW 57th Ave, Miami, FL 33155",0x88d9b8253215cb3b:0xf5b65c1df710207f,25.7495871,-80.28764199999999,Seafood restaurant,4.5,56,1,1,0,0,FL,Miami
Café Lini Latin Cuisine,"Café Lini Latin Cuisine, 9636 SW 24th St, Miami, FL 33165",0x88d9b94e9e38596f:0xff6eba806c11490b,25.746841699999997,-80.34996369999999,Dominican restaurant,4.5,37,1,1,1,0,FL,Miami
Venezuela Restaurant - Oficial,"Venezuela Restaurant - Oficial, 8457 NW 61st St, Miami, FL 33166",0x88d9bbf1b7a00853:0xe49e51bcf2e9da1d,25.8290977,-80.334671,"Restaurant, Venezuelan restaurant",4.5,13,1,1,1,0,FL,Miami
La Tinajita Cafe,"La Tinajita Cafe, 13690 SW 142nd Ave, Miami, FL 33186",0x88d9c18f14af426f:0xced73f06159bcf35,25.639066999999997,-80.423214,"Coffee shop, Delivery Restaurant",4.5,144,1,1,1,0,FL,Miami
Maya'mi Cocina,"Maya'mi Cocina, 184 NE 50th Terrace, Miami, FL 33137",0x88d9b1f929957219:0x74be2dc3f738da04,25.821954599999998,-80.1921389,Mexican restaurant,4.5,34,1,1,1,0,FL,Miami
Fritanga Kendall Grille,"Fritanga Kendall Grille, 12700 SW 122nd Ave STE #103, Miami, FL 33186",0x88d9c15fabf5c115:0x3b071ac1e5356ff4,25.6506999,-80.3916991,Restaurant,4.5,74,1,1,0,0,FL,Miami
Shukran - Brickell (Mediterranean Food),"Shukran - Brickell (Mediterranean Food), 609 Brickell Ave, Miami, FL 33131",0x88d9b7e870f451c3:0x8c4483f852ea5d9d,25.767619399999997,-80.18907109999999,"Mediterranean restaurant, Falafel restaurant, Kebab shop",4.5,23,1,1,1,0,FL,Miami
Valentina's Pizza,"Valentina's Pizza, 2525 NW 2nd Ave, Miami, FL 33127",0x88d9b6b27e7e3129:0x9b413ac4dd32a9af,25.801251999999998,-80.1989858,Pizza restaurant,4.6,17,1,1,0,0,FL,Miami
Crafty Crab - Sunset,"Crafty Crab - Sunset, 10855 SW 72nd St Unit I-5, Miami, FL 33173",0x88d9c19b172c8b6b:0xce2f31b1e5f765fb,25.701944599999997,-80.36848739999999,"Seafood restaurant, Creole restaurant",4.6,208,1,1,1,0,FL,Miami
Pho Taste,"Pho Taste, 12735 SW 42nd St Unit 12-13, Miami, FL 33175",0x88d9bfd685ada66d:0x6be6eb21dc04e63b,25.7297035,-80.40035859999999,Restaurant,4.6,36,1,1,1,0,FL,Miami
Clean Start Cleansing Miami,"Clean Start Cleansing Miami, 2336 Biscayne Blvd, Miami, FL 33137",0x88d9b3d77b06e4bb:0x930c3d4d9df90fa2,25.7997852,-80.1893874,"Health spa, Restaurant, Spa and health club",4.6,104,1,0,0,0,FL,Miami
Indio Mara Fast Food,"Indio Mara Fast Food, 6439 NW 82nd Ave, Miami, FL 33166",0x88d9bb4e2bc46909:0xa89eb48586d8ef64,25.8322696,-80.3297348,Fast food restaurant,4.6,58,1,1,0,0,FL,Miami
Paella Party,"Paella Party, 16155 SW 117th Ave STE B8, Miami, FL 33177",0x88d9c3e5dd55c563:0x1e0ebcae07849450,25.6186406,-80.3809783,"Caterer, Event planner, Party equipment rental service, Spanish restaurant",4.7,18,1,0,0,0,FL,Miami
Big Red's Pizza,"Big Red's Pizza, 220 NW 137th Ave, Miami, FL 33182",0x88d9bff81d0067ef:0xaa364241056274b4,25.7698355,-80.4183078,Pizza restaurant,4.7,28,1,0,1,0,FL,Miami
Sips Coffee Roasters,"Sips Coffee Roasters, 1951 NW 7th Ave Suite 190, Miami, FL 33136",0x88d9b7ae2ae18509:0xb04f3143581c7219,25.7949631,-80.2068635,"Restaurant, Coffee shop",4.7,28,1,1,1,0,FL,Miami
Lo de Lea Argentinean Grill,"Lo de Lea Argentinean Grill, 7001 Biscayne Blvd, Miami, FL 33138",0x88d9b3e9cc948e4f:0x36d487ea4b00d784,25.8396148,-80.1842041,Argentinian restaurant,4.7,73,1,1,1,0,FL,Miami
Chimi El Tigre - Doral,"Chimi El Tigre - Doral, 220 NW 137th Ave, Miami, FL 33182",0x88d9bf5f2bbb6b1b:0x749bb565c7ca6f84,25.7698355,-80.4183078,Dominican restaurant,4.7,36,1,1,1,0,FL,Miami
MONALISA PIZERIA ITALIAN RESTAURANT,"MONALISA PIZERIA ITALIAN RESTAURANT, 4753 SW 8th St, Miami, FL 33134",0x88d9b7586c7923a5:0xa13568758d12b078,25.7643679,-80.2727565,Italian restaurant,4.8,25,1,1,1,0,FL,Miami
Chum Pizza,"Chum Pizza, 9700 SW 40th St, Miami, FL 33165",0x88d9b9f19c469ac5:0xf18b61719674c8d4,25.732423999999998,-80.352058,Pizza restaurant,4.8,27,1,1,0,0,FL,Miami
El Turco Turkish Food,"El Turco Turkish Food, 184 NE 50th Terrace Unit 307, Miami, FL 33137",0x88d9b1d0c4ab1ae3:0x36684aa73c0aa604,25.8219146,-80.1920681,Restaurant,4.8,36,1,1,0,0,FL,Miami
La Taverna Restaurant,"La Taverna Restaurant, 2901 SW 8th St #101, Miami, FL 33135",0x88d9b70664fcc3eb:0x556baa0fb097dd59,25.765307,-80.241186,"Honduran restaurant, Central American restaurant, Delivery Restaurant",4.8,58,1,0,1,0,FL,Miami
Cumex Cafe,"Cumex Cafe, 7020 NW 72nd Ave, Miami, FL 33166",0x88d9b9af02025049:0xe3cab556802d606,25.8378126,-80.3147821,"Restaurant, Breakfast restaurant, Catering food and drink supplier, Chicken wings restaurant, Hamburger restaurant, Lunch restaurant, Sandwich shop, Taco restaurant",4.8,4,1,1,1,0,FL,Miami
Fit4u Healthy Food & More,"Fit4u Healthy Food & More, 13925 SW 66th St, Miami, FL 33183",0x88d9c066432df03f:0xaf230ac44652fbbd,25.7060295,-80.4207296,"Restaurant, Delivery Restaurant",4.8,109,1,1,1,0,FL,Miami
Arepa Point Food Truck,"Arepa Point Food Truck, 6475 NW 87th Ave, Miami, FL 33178",0x88d9bbaa5859663b:0x92e30912d74f874,25.832147,-80.3377241,Restaurant,4.9,98,1,1,1,0,FL,Miami
Pizzeria La Real,"Pizzeria La Real, 18525 SW 177th Ave, Miami, FL 33187",0x88d9e96e81af616d:0x476237475a60d7c,25.593074299999998,-80.4775598,Pizza restaurant,4.9,18,1,1,1,0,FL,Miami
Pastamarket,"Pastamarket, 209 NE 82nd Terrace, Miami, FL 33138",0x88d9b179652b5bc5:0x7e6dbbc2c018a26f,25.8500668,-80.19248189999999,"Restaurant, Italian restaurant",4.9,58,1,1,0,0,FL,Miami
The Cubanest Arab food truck,"The Cubanest Arab food truck, 3540 NW 103rd St, Miami, FL 33147",0x88d9b108e85261c3:0x78af7d5f27d95c73,25.867289,-80.2554585,Restaurant,5.0,1,1,1,0,0,FL,Miami
Da provare,"Da provare, 2600 NE 2nd Ave, Miami, FL 33137",0x88d9b7d433f96289:0x935842f4564274ca,25.801785799999998,-80.1912713,Restaurant,5.0,5,1,1,1,0,FL,Miami
GLC Abogados,"GLC Abogados, 7805 NW 15th St, Miami, FL 33126",0x88d9b90ac0cf225b:0xc931ce5bf084b3ee,25.788232299999997,-80.322481,Buffet restaurant,5.0,1,1,0,1,0,FL,Miami
Restaurant,"Restaurant, 7317 SW 107th Ave, Miami, FL 33173",0x88d9c74acb1b8429:0x34c1dcec8db10ebb,25.7000144,-80.36571839999999,"Italian restaurant, Restaurant, Seafood restaurant",3.1,28,0,1,1,0,FL,Miami
Take Me Three Bahamian Kitchen,"Take Me Three Bahamian Kitchen, 703 NW 79th St, Miami, FL 33150",0x88d9b174b0b58d1f:0x6b623a2921d3b786,25.847221599999997,-80.2093617,Restaurant,3.5,17,0,1,0,0,FL,Miami
Village Chinese,"Village Chinese, 13707 SW 152nd St, Miami, FL 33177",0x88d9c22959e9130f:0x67d8af02bc8a5ab8,25.626812899999997,-80.4167485,Chinese restaurant,3.5,36,0,0,0,0,FL,Miami
8tavocielo,"8tavocielo, 75 SW 11th St, Miami, FL 33130",0x88d9b684233fb0a7:0x3a2fb16c9f0fc12f,25.763678,-80.194734,Fast food restaurant,3.5,8,0,0,0,0,FL,Miami
Bertoni Brickell,"Bertoni Brickell, 1300 Brickell Bay Dr, Miami, FL 33131",0x88d9b681079b2363:0x4e07ed3646618d28,25.760386,-80.190344,"Italian restaurant, Restaurant",3.6,84,0,0,0,0,FL,Miami
Sgt. Peppers Subs,"Sgt. Peppers Subs, 10005-75 SW 72nd St, Miami, FL 33173",0x88d9c74892feb2d7:0xddec01842f3b1bbb,25.701811199999998,-80.3564052,Restaurant,3.7,8,0,1,0,0,FL,Miami
Miami Bar Supply,"Miami Bar Supply, 3533 NW 58th St, Miami, FL 33142",0x88d9b0c099b455ef:0xaac669ad71074fbe,25.827320699999998,-80.25402059999999,"Restaurant supply store, Kitchen supply store, Store",3.8,8,0,0,0,0,FL,Miami
Nutreat Restaurant,"Nutreat Restaurant, 100 S Biscayne Blvd STE 108, Miami, FL 33131",0x88d9b69df8051941:0x66b585fe5bc05d90,25.773092,-80.188166,"Health food restaurant, Breakfast restaurant, Fast food restaurant, French restaurant, Takeout Restaurant, Organic restaurant, Sandwich shop",3.9,18,0,0,0,0,FL,Miami
Palmar at The Citadel,"Palmar at The Citadel, 8300 NE 2nd Ave, Miami, FL 33138",0x88d9b1cf42024cf1:0xfb1884ec0fa43899,25.852020099999997,-80.1940458,Chinese restaurant,3.9,8,0,0,0,0,FL,Miami
Bendoiro Bowls Factory,"Bendoiro Bowls Factory, 11735 SW 147th Ave #3, Miami, FL 33196",0x88d9c1bfa5863cf5:0x361f7b776320e316,25.658147,-80.43083279999999,Restaurant,4.0,25,0,0,1,1,FL,Miami
Cafe Santa Barbara,"Cafe Santa Barbara, 2516 SW 8th St, Miami, FL 33135",0x88d9b7014ef24b45:0x8926dc85a7adc032,25.7651135,-80.23723129999999,Restaurant,4.0,4,0,0,0,0,FL,Miami
Crazy Chicken restaurant,"Crazy Chicken restaurant, 15030 NE 6th Ave, Miami, FL 33161",0x88d9ae09e2192c9f:0x6c5a9efd150be1ee,25.9136997,-80.18809379999999,Haitian restaurant,4.0,18,0,1,0,0,FL,Miami
La Casa del Sabor,"La Casa del Sabor, 5301 NW 7th St, Miami, FL 33126",0x88d9b9a4f6730f33:0x836a41f8433efb43,25.7784113,-80.2823916,Cuban restaurant,4.1,27,0,1,0,0,FL,Miami
Los Comales Carne Asada Nicaraguense,"Los Comales Carne Asada Nicaraguense, 340 SW 109th Ave, Miami, FL 33174",0x88d9bf296d39f8bb:0xff681919a8bc561f,25.765308299999997,-80.3731179,Nicaraguan restaurant,4.1,7,0,0,0,0,FL,Miami
House of Mac,"House of Mac, 100 NW 6 St, Miami, FL 33128",0x88d9b79201047d39:0xf6efdb87e2dc8a10,25.779715099999997,-80.19586009999999,Restaurant,4.2,8,0,0,0,0,FL,Miami
Sweet Times Cupcakes & Coffee,"Sweet Times Cupcakes & Coffee, 8530 SW 124th Ave STE 101, Miami, FL 33183",0x88d9c0e5f602e3a7:0x598c267fcb39b4d7,25.688569899999997,-80.3944161,"Dessert shop, Coffee shop, Dessert restaurant",4.2,8,0,0,0,0,FL,Miami
Savvy Mistura Restaurant,"Savvy Mistura Restaurant, 14782 SW 56th St, Miami, FL 33185",0x88d9c012b7ae504b:0x336f2f816e4d1c14,25.713223,-80.43336599999999,Peruvian restaurant,4.2,65,0,0,0,0,FL,Miami
Subway,"Subway, 9060 S Dixie Hwy, Miami, FL 33156",0x88d9c7a4e23da1e5:0xbedd23660b1e0b08,25.6860447,-80.3120618,"Sandwich shop, Fast food restaurant, Takeout Restaurant, Restaurant",4.2,25,0,0,0,0,FL,Miami
Peruvian Taste Fusion,"Peruvian Taste Fusion, 9947 SW 142nd Ave #6844, Miami, FL 33186",0x88d9c1b26e9e6957:0x9d9657f21d8aa383,25.674238,-80.4209958,Peruvian restaurant,4.3,38,0,0,0,0,FL,Miami
El Maracucho Fast Food,"El Maracucho Fast Food, 6301-6385 NW 87th Ave, Miami, FL 33178",0x88d9bbc6ad93b7c7:0x49113241d05e3cf6,25.8318802,-80.3377235,Fast food restaurant,4.4,25,0,0,0,0,FL,Miami
Hyatt Miami at The Blue,"Hyatt Miami at The Blue, 5300 NW 87th Ave, Miami, FL 33178",0x88d9bbdc99f08e09:0xb90f59d98c0570e1,25.8198053,-80.3380507,"Hotel, Bar & grill, Resort hotel",4.4,16,0,0,0,0,FL,Miami
Pacifico,"Pacifico, 947 Brickell Ave, Miami, FL 33131",0x88d9b796b2415f75:0x977d5fb68c86666a,25.764623099999998,-80.1908345,Peruvian restaurant,4.5,15,0,0,0,0,FL,Miami
Mister Taco,"Mister Taco, 7358 SW 8th St, Miami, FL 33144",0x88d9b852f3349049:0x1337f2079dbd77e4,25.7623817,-80.3150868,Mexican restaurant,4.5,53,0,0,0,0,FL,Miami
The Pizza House,"The Pizza House, 8825 SW 107th Ave, Miami, FL 33176",0x88d9c72d5555c5bd:0x518243a1dc53f0ba,25.6856595,-80.3643113,Pizza restaurant,4.5,18,0,0,0,0,FL,Miami
Aroma Espresso Bar,"Aroma Espresso Bar, 7535 N Kendall Dr, Miami, FL 33156",0x88d9c7a386639cc1:0xde06663cc11303d9,25.689769,-80.312862,"Restaurant, Espresso bar, Takeout Restaurant, Salad shop, Sandwich shop",4.7,7,0,1,1,0,FL,Miami
Cocada,"Cocada, 6821 SW 127th Ave, Miami, FL 33183",0x88d9c092899cb85d:0x3a67592433748a3b,25.7032797,-80.3982956,Restaurant,4.8,8,0,0,0,0,FL,Miami
Bari Bar,"Bari Bar, 11401 NW 12th St, Miami, FL 33172",0x88d9bfe3b1a5bbd9:0x486316ba367b1164,25.787058,-80.37993949999999,Restaurant,4.8,5,0,0,0,0,FL,Miami
Parguito Gourmet,"Parguito Gourmet, 728 NW 29th St, Miami, FL 33127",0x88d9b6b516550983:0x23a4d9a8358fd3f9,25.8032719,-80.2079146,Restaurant,4.8,5,0,0,0,0,FL,Miami
Antojitos Mexicanos Tenorio,"Antojitos Mexicanos Tenorio, 13856 SW 56th St, Miami, FL 33175",0x88d9c111d08b4021:0xe739728a1fa11bdf,25.7123028,-80.41828989999999,Mexican restaurant,5.0,1,0,1,1,0,FL,Miami
DELICIA EMPANADAS KOSHER FACTORY AND STORE,"DELICIA EMPANADAS KOSHER FACTORY AND STORE, 168 NE 167th St, Miami, FL 33162",0x88d9af713cb4b463:0x924bdcc99f3e5739,25.9278378,-80.1969034,Kosher restaurant,5.0,2,0,0,0,0,FL,Miami
Taco Rico,"Taco Rico, 646 SW 109th Ave, Miami, FL 33174",0x88d9bf55efaaf511:0xab3c0298ab6015ef,25.7627776,-80.3726882,Mexican restaurant,1.0,6,1,1,0,0,FL,Miami
Buffalo Wings Miami Airport,"Buffalo Wings Miami Airport, 3449 NW 42nd Ave, Miami, FL 33142",0x88d9b74d0757f38f:0x7231d2c79538b950,25.8057154,-80.263256,Bar & grill,3.0,2,1,1,1,0,FL,Miami
Alhambra Restaurant,"Alhambra Restaurant, 13550 SW 120th St #408, Miami, FL 33186",0x88d9c1a1bfa2414d:0xd2d22090f131cdd8,25.6555538,-80.414997,Mediterranean restaurant,3.4,5,1,1,1,0,FL,Miami
Taverna Opa,"Taverna Opa, 11401 NW 12th St, Miami, FL 33172",0x88d9bec5fc96258b:0x15bb0d6277fab01b,25.787924999999998,-80.3804792,"Greek restaurant, Mediterranean restaurant, Restaurant",3.5,2,1,1,1,0,FL,Miami
Dragon One,"Dragon One, 10162 W Flagler St, Miami, FL 33174",0x88d9b929e414b8d7:0xc3e5c45c8261b837,25.7679124,-80.3602895,"Chinese restaurant, Asian restaurant, Restaurant",3.5,26,1,1,1,0,FL,Miami
Babito’s mediterranean cuisine,"Babito’s mediterranean cuisine, 169 NE 25th St, Miami, FL 33137",0x88d9b74b817845c1:0xf04c89d2d14f8ae4,25.8010295,-80.19145139999999,"Restaurant, Grocery store",3.6,8,1,1,1,0,FL,Miami
CH'I,"CH'I, 701 S Miami Ave #339a, Miami, FL 33131",0x88d9b70703b36b5d:0xe841a01432fabcea,25.766968199999997,-80.1934346,Asian fusion restaurant,3.7,38,1,1,0,0,FL,Miami
Mota Pizza Rustica,"Mota Pizza Rustica, 7795 W Flagler St, Miami, FL 33144",0x88d9b90773621b79:0x554e8fdc807b556f,25.7739013,-80.3224022,Pizza restaurant,3.8,25,1,1,0,0,FL,Miami
Aroma Colombiano Restaurant,"Aroma Colombiano Restaurant, 3937 NW 7th St #5504, Miami, FL 33126",0x88d9b76eb25db6e3:0xdabaa79dce46e671,25.779137,-80.260734,Nuevo Latino restaurant,3.8,96,1,0,1,0,FL,Miami
Kreyol kitchen,"Kreyol kitchen, 18138 NW 2nd Ave, Miami, FL 33169",0x88d9af42f5fbae7f:0xaae18d3d3cc879b2,25.941114,-80.205573,Restaurant,3.8,76,1,1,1,0,FL,Miami
Gran Parada Cafe,"Gran Parada Cafe, 11802 NW 10th Ave, Miami, FL 33168",0x88d9b1c3928853f3:0x6d0c5102dcb41128,25.8829249,-80.2147679,Restaurant,3.8,14,1,1,0,0,FL,Miami
El Gallo Pinto Restaurante,"El Gallo Pinto Restaurante, 4747 W Flagler St, Miami, FL 33134",0x88d9b77c8b6442df:0x2201a44ee4ad25c9,25.7716972,-80.2725389,"Nicaraguan restaurant, Latin American restaurant",3.9,58,1,1,1,0,FL,Miami
Chili's Grill & Bar,"Chili's Grill & Bar, 1710 NW 117th Pl, Miami, FL 33182",0x88d9bff321b4924d:0x702b48a75d8d8798,25.7909507,-80.3871482,"Tex-Mex restaurant, Mexican restaurant, Restaurant",3.9,15,1,1,1,0,FL,Miami
Subway,"Subway, 3100 SW 62nd Ave, Miami, FL 33155",0x88d9b83e0fbc5657:0xa86a9b2eea1517bf,25.7413998,-80.294427,"Sandwich shop, Caterer, Fast food restaurant, Takeout Restaurant, Restaurant",3.9,48,1,1,1,0,FL,Miami
Mayfair Kitchen,"Mayfair Kitchen, 3000 Florida Ave, Miami, FL 33133",0x88d9b7cf046aaaab:0xfdabf76bea45279a,25.7282916,-80.2407451,"Restaurant, Bar",4.0,8,1,0,1,0,FL,Miami
Rubido's Cafeteria,"Rubido's Cafeteria, 532 SW 109th Ave, Miami, FL 33174",0x88d9bf294bd6deeb:0x98aff28f4f37b653,25.763523499999998,-80.37280439999999,"Latin American restaurant, Cuban restaurant",4.0,28,1,0,1,0,FL,Miami
Chick-fil-A,"Chick-fil-A, 1410 NW N River Dr, Miami, FL 33125",0x88d9b720f6656ed5:0x8e20966fd85b8e18,25.785413199999997,-80.219216,"Fast food restaurant, Breakfast restaurant, Caterer, Chicken restaurant, Delivery service, Family restaurant",4.0,48,1,1,1,0,FL,Miami
Latin Cuisine. CLOSED,"Latin Cuisine. CLOSED, 1444 Biscayne Blvd #103, Miami, FL 33132",0x88d9b6a709fbb175:0x4da1abb998703c1,25.789023099999998,-80.1893843,"Latin American restaurant, Takeout Restaurant, Small plates restaurant, Soup restaurant, Vegan restaurant",4.1,17,1,0,1,1,FL,Miami
Subway,"Subway, 20131 SW 127th Ave Store 25, Miami, FL 33177",0x88d9c30852ccb619:0x198931153c38f944,25.5801557,-80.3957441,"Sandwich shop, Caterer, Fast food restaurant, Takeout Restaurant, Restaurant",4.1,38,1,1,1,0,FL,Miami
B-Side by Itamae,"B-Side by Itamae, 143 NW 23rd St Inside 1-800-Lucky, Miami, FL 33127",0x88d9b7d1e09155a1:0xd58fcd475f989eef,25.7993651,-80.1979458,"Sushi restaurant, Japanese restaurant",4.2,8,1,1,1,0,FL,Miami
1601 Lounge,"1601 Lounge, 1601 Biscayne Blvd, Miami, FL 33132",0x88d9b6a7e9c4c355:0xab18547a1c88c986,25.7910185,-80.1885233,"Lounge, Bar, Latin American restaurant",4.2,28,1,1,1,0,FL,Miami
Made in Italy Gourmet,"Made in Italy Gourmet, 10 NE 27th St, Miami, FL 33137",0x88d9b6acc1e5c1bf:0x5724e4b9c40104ce,25.802355,-80.1946571,"Italian restaurant, Gourmet grocery store, Restaurant, Wine bar",4.2,38,1,1,1,0,FL,Miami
Cajio's Cuban Cuisine,"Cajio's Cuban Cuisine, 20505 S Dixie Hwy, Miami, FL 33189",0x88d9c37ea9ff58d5:0x1c1bebb46676406d,25.574543199999997,-80.3693485,"Cuban restaurant, Caribbean restaurant, Restaurant",4.2,48,1,1,0,0,FL,Miami
Vive Cafe,"Vive Cafe, 48 E Flagler St, Miami, FL 33131",0x88d9b69c04cb9555:0x78aff35a6770f769,25.7741096,-80.19240479999999,Restaurant,4.3,8,1,1,1,0,FL,Miami
Mister Mango,"Mister Mango, NE 36 St@NE 1 Av, Miami, FL 33137",0x88d9b1bcf8217b13:0x912f3d9a91215ce5,25.810341599999997,-80.1933224,Restaurant,4.3,8,1,1,1,0,FL,Miami
Stela's Kitchen & Bar,"Stela's Kitchen & Bar, 7415 NW 19th St bldg 6 suite a, Miami, FL 33126",0x88d9b99f02eaaaa9:0x3300115a2df352a4,25.791459399999997,-80.3176111,Restaurant,4.3,73,1,1,1,0,FL,Miami
Carvel,"Carvel, 8349 W Flagler St, Miami, FL 33144",0x88d9b903197566d1:0x17dfab7e3e5cb3ed,25.770885699999997,-80.3317526,"Ice cream shop, Bakery, Cake shop, Dessert restaurant, Dessert shop",4.3,53,1,0,0,0,FL,Miami
Goldo Pasao,"Goldo Pasao, 6621 NW 82nd Ave, Miami, FL 33166",0x88d9bb5c5f2a40e3:0x71b2929eb460b5b,25.8337817,-80.32978609999999,Restaurant,4.4,28,1,1,1,0,FL,Miami
Miami River II Mexican Cuisine,"Miami River II Mexican Cuisine, 1881 NW 7th St, Miami, FL 33125",0x88d9b7ad5d1a3333:0xb3d1dca363b8b734,25.780098499999998,-80.22630989999999,Mexican restaurant,4.4,27,1,1,1,0,FL,Miami
Pizza Crek,"Pizza Crek, 125 SE 2nd Ave, Miami, FL 33131",0x88d9b69db50ab827:0x8546598899ab1417,25.772871799999997,-80.1901269,"Pizza restaurant, Dessert restaurant, Health food restaurant, Italian restaurant, Pizza delivery, Pizza Takeout",4.4,13,1,1,0,0,FL,Miami
Lolita resturant-Comida Mexicana,"Lolita resturant-Comida Mexicana, 316 SW 8th Ave, Miami, FL 33130",0x88d9b7f9b4a07fa9:0x6a65847a13188fc6,25.770393799999997,-80.2076854,Mexican restaurant,4.4,38,1,1,1,0,FL,Miami
Ruta 40,"Ruta 40, 12743 SW 42nd St, Miami, FL 33175",0x88d9bf5e4d2e7837:0xd2d360f35eb09989,25.730362,-80.400672,Colombian restaurant,4.4,18,1,1,1,0,FL,Miami
Restaurant Italiano,"Restaurant Italiano, 18200 SW 147th Ave, Miami, FL 33187",0x88d9c242d1c84e4f:0x37bc382284a49b52,25.5976254,-80.4304866,Restaurant,4.5,15,1,1,1,0,FL,Miami
LINA’S Paris,"LINA’S Paris, 150 W Flagler St #175, Miami, FL 33130",0x88d9b69a3efdefd9:0x111d538308958f4b,25.773870199999998,-80.19693,"Restaurant, Salad shop",4.5,8,1,1,0,0,FL,Miami
Mayte Cafeteria,"Mayte Cafeteria, 8701 NW 13th Terrace, Miami, FL 33172",0x88d9b913ee844c3f:0x4e05977dcc4e2ec,25.785372799999998,-80.3371221,Creole restaurant,4.5,6,1,1,0,0,FL,Miami
KFC,"KFC, 4200 NW 21st St, Miami, FL 33122",0x88d9b75822dbcbcd:0x89a5dc67cd0f7ec,25.7932381,-80.2742725,"Chicken restaurant, Fast food restaurant",4.5,8,1,0,1,0,FL,Miami
Gusto's Latin Food,"Gusto's Latin Food, 12239 SW 112th St, Miami, FL 33186",0x88d9c18fc71c946b:0xde43f9953a2ede1f,25.6628753,-80.3933373,"Colombian restaurant, Nuevo Latino restaurant",4.6,48,1,1,1,0,FL,Miami
Virginia's Cafe,"Virginia's Cafe, 119 NW 12th Ave, Miami, FL 33128",0x88d9b6ec164e1b5f:0x9b54ed3d9519bedf,25.774769,-80.21443599999999,Nicaraguan restaurant,4.6,8,1,1,0,0,FL,Miami
Casa Carlos Restaurant,"Casa Carlos Restaurant, 14751 SW 184th St, Miami, FL 33187",0x88d9c34233a1afef:0x3958d9fe5a2ceb03,25.596446099999998,-80.4310732,Cuban restaurant,4.6,108,1,1,1,0,FL,Miami
Pho 305,"Pho 305, 2519 NE 2nd Ave, Miami, FL 33137",0x88d9b7a04c8cc5dd:0x4a530850b641851,25.801449299999998,-80.19082159999999,Vietnamese restaurant,4.6,58,1,1,1,0,FL,Miami
Sweet Hand Kathy's,"Sweet Hand Kathy's, 20316 NW 2nd Ave, Miami, FL 33169",0x88d9ae938dec3343:0x4b579efdd6a556a6,25.9621115,-80.2062863,"Restaurant, Bakery",4.7,78,1,1,1,0,FL,Miami
SHIK-SHAK,"SHIK-SHAK, 121 NE 25th St, Miami, FL 33137",0x88d9bb760e2bb0e5:0xa81e2ce7153ea651,25.8010482,-80.1923745,"Hamburger restaurant, Mediterranean restaurant",4.7,47,1,1,1,0,FL,Miami
Belly's Crab Corner,"Belly's Crab Corner, 22339 SW 112th Ave, Miami, FL 33170",0x88d9c352f1335729:0x210813d0973ca355,25.559648,-80.371661,Restaurant,4.7,57,1,1,1,0,FL,Miami
La Terraza,"La Terraza, 350 NE 24th St, Miami, FL 33137",0x88d9b6aa5d64d8a3:0xb0ead5c7b9a85a9b,25.8001002,-80.188934,Restaurant,4.7,14,1,1,1,0,FL,Miami
Belkys International Cuisine,"Belkys International Cuisine, 10777 NW 36th Ave, Miami, FL 33167",0x88d9b06972c2a845:0xc455f8f3e05c1559,25.871310599999997,-80.257791,Restaurant,4.7,53,1,1,0,0,FL,Miami
Joseph's Organic Bakery,"Joseph's Organic Bakery, 18228 W Dixie Hwy, Miami, FL 33160",0x88d9ac537045d977:0x41e075429f0f0f17,25.943718399999998,-80.14926179999999,"Bakery, Gluten-free restaurant, Health food store, Kosher restaurant, Organic food store, Organic restaurant, Vegan restaurant, Vegetarian restaurant, Vitamin & supplements store",4.7,85,1,0,0,0,FL,Miami
Spice Magic Indian Cuisine,"Spice Magic Indian Cuisine, 10720 W Flagler St #15, Miami, FL 33174",0x88d9bf24de54a7e1:0xfc1a865d36edd80f,25.7671577,-80.3696058,Restaurant,4.7,3,1,1,0,0,FL,Miami
